{
  "manifestVersion": "1.0",
  "citySlug": "sao-francisco-do-sul",
  "dataset": {
    "metadata": {
      "datasetId": "dataset-verdes-mares-sfs-2026-04-16T12-00-00-000Z",
      "createdAt": "2026-04-16T12:00:00.000Z",
      "sourceName": "Verdes Mares Sao Francisco do Sul",
      "sourceUrl": "https://vmares.com.br/sao-francisco-do-sul/",
      "collectionMethod": "manual"
    },
    "transportLines": [
      {
        "id": "line-0103",
        "code": "0103",
        "slug": "0103-enseada-via-forte",
        "name": "Enseada via Forte",
        "operator": "Verdes Mares",
        "summary": "Linha Centro - Enseada via Forte",
        "routeLabel": "Centro -> Enseada",
        "originLabel": "Centro",
        "destinationLabel": "Enseada",
        "transportMode": "municipal",
        "operationalStatus": "on-time",
        "fareSummary": "Tarifa urbana municipal",
        "amenities": [],
        "sourceUpdatedAt": "2026-04-16T12:00:00.000Z",
        "sourceLineRef": "0103",
        "isActive": true
      }
    ],
    "routeDirections": [
      {
        "id": "line-0103-outbound",
        "lineId": "line-0103",
        "type": "outbound",
        "slug": "outbound",
        "name": "Sa?da do Centro",
        "routeLabel": "Centro -> Enseada",
        "originLabel": "Centro",
        "destinationLabel": "Enseada",
        "sortOrder": 0,
        "isLoop": false,
        "sourceDirectionRef": "outbound"
      },
      {
        "id": "line-0103-inbound",
        "lineId": "line-0103",
        "type": "inbound",
        "slug": "inbound",
        "name": "Sa?da da Enseada",
        "routeLabel": "Enseada -> Centro",
        "originLabel": "Enseada",
        "destinationLabel": "Centro",
        "sortOrder": 1,
        "isLoop": false,
        "sourceDirectionRef": "inbound"
      }
    ],
    "stops": [
      {
        "id": "stop-praca-dr-getulio-vargas-1-m26_2434-m48_6379",
        "name": "Praça Dr. Getúlio Vargas 1",
        "slug": "praca-dr-getulio-vargas-1",
        "latitude": -26.243437512602945,
        "longitude": -48.637910711972246
      },
      {
        "id": "stop-ogmo-sfs-m26_2435-m48_6351",
        "name": "Ogmo SFS",
        "slug": "ogmo-sfs",
        "latitude": -26.24347278215267,
        "longitude": -48.635064229915336
      },
      {
        "id": "stop-antiga-multipaper-sentido-centro-bairro-m26_2447-m48_6347",
        "name": "Antiga Multipaper (Sentido Centro/Bairro)",
        "slug": "antiga-multipaper-sentido-centro-bairro",
        "latitude": -26.244699006604957,
        "longitude": -48.63466469668285
      },
      {
        "id": "stop-carioca-bica-d-agua-m26_2466-m48_6355",
        "name": "Carioca (Bica d'água)",
        "slug": "carioca-bica-d-agua",
        "latitude": -26.24659710935892,
        "longitude": -48.63549497664863
      },
      {
        "id": "stop-colegio-adventista-m26_2478-m48_6373",
        "name": "Colégio Adventista",
        "slug": "colegio-adventista",
        "latitude": -26.247834789940356,
        "longitude": -48.63733216779835
      },
      {
        "id": "stop-restaurante-tom-brasil-m26_2492-m48_6384",
        "name": "Restaurante Tom Brasil",
        "slug": "restaurante-tom-brasil",
        "latitude": -26.249248390210585,
        "longitude": -48.63840582899403
      },
      {
        "id": "stop-rodoviaria-velha-m26_2492-m48_6356",
        "name": "Rodoviária Velha",
        "slug": "rodoviaria-velha",
        "latitude": -26.249224290355095,
        "longitude": -48.63560230865354
      },
      {
        "id": "stop-millium-m26_2477-m48_6345",
        "name": "Millium",
        "slug": "millium",
        "latitude": -26.24773780113116,
        "longitude": -48.634526537853745
      },
      {
        "id": "stop-colegio-santa-catarina-rua-barao-do-rio-branco-730-m26_2452-m48_6326",
        "name": "Colégio Santa Catarina, Rua Barão do Rio Branco 730",
        "slug": "colegio-santa-catarina-rua-barao-do-rio-branco-730",
        "latitude": -26.24515882173163,
        "longitude": -48.632634968370155
      },
      {
        "id": "stop-igreja-quadrangular-antigo-super-10-m26_2463-m48_6293",
        "name": "Igreja Quadrangular (antigo Super 10)",
        "slug": "igreja-quadrangular-antigo-super-10",
        "latitude": -26.246340804596205,
        "longitude": -48.629343796815185
      },
      {
        "id": "stop-auto-escola-sao-francisco-m26_2472-m48_6275",
        "name": "Auto Escola São Francisco",
        "slug": "auto-escola-sao-francisco",
        "latitude": -26.24719855818423,
        "longitude": -48.627462845459284
      },
      {
        "id": "stop-viacao-verdes-mares-m26_2492-m48_6231",
        "name": "Viação Verdes Mares",
        "slug": "viacao-verdes-mares",
        "latitude": -26.249219862252595,
        "longitude": -48.62307844858382
      },
      {
        "id": "stop-antiga-souza-vidal-m26_2513-m48_6188",
        "name": "Antiga Souza Vidal",
        "slug": "antiga-souza-vidal",
        "latitude": -26.25129673331392,
        "longitude": -48.61880208945875
      },
      {
        "id": "stop-borracharia-do-eldo-m26_2526-m48_6170",
        "name": "Borracharia do Eldo",
        "slug": "borracharia-do-eldo",
        "latitude": -26.252586180491125,
        "longitude": -48.61696827912255
      },
      {
        "id": "stop-gelo-da-ilha-m26_2535-m48_6142",
        "name": "Gelo da Ilha",
        "slug": "gelo-da-ilha",
        "latitude": -26.25350335302604,
        "longitude": -48.61416680995571
      },
      {
        "id": "stop-polimix-m26_2502-m48_6088",
        "name": "Polimix",
        "slug": "polimix",
        "latitude": -26.2502089362594,
        "longitude": -48.60884798948869
      },
      {
        "id": "stop-padaria-km-1-5-m26_2477-m48_6055",
        "name": "Padaria KM 1,5",
        "slug": "padaria-km-1-5",
        "latitude": -26.247697801414972,
        "longitude": -48.60548822716956
      },
      {
        "id": "stop-em-franklin-de-oliveira-sentido-centro-bairro-m26_2446-m48_6013",
        "name": "EM Franklin de Oliveira (Sentido Centro/Bairro)",
        "slug": "em-franklin-de-oliveira-sentido-centro-bairro",
        "latitude": -26.244593896062582,
        "longitude": -48.601328070731256
      },
      {
        "id": "stop-antes-do-rocha-m26_2387-m48_5932",
        "name": "Antes do Rocha",
        "slug": "antes-do-rocha",
        "latitude": -26.238657459849893,
        "longitude": -48.59319657509188
      },
      {
        "id": "stop-porto-seco-rocha-sentido-centro-bairro-m26_2358-m48_5893",
        "name": "Porto Seco Rocha (Sentido Centro/Bairro)",
        "slug": "porto-seco-rocha-sentido-centro-bairro",
        "latitude": -26.23577626467118,
        "longitude": -48.589257238770365
      },
      {
        "id": "stop-km-3-sentido-centro-bairro-m26_2340-m48_5869",
        "name": "KM 3 (Sentido Centro/Bairro)",
        "slug": "km-3-sentido-centro-bairro",
        "latitude": -26.233972591742404,
        "longitude": -48.5868932472597
      },
      {
        "id": "stop-pro-ilha-m26_2301-m48_5816",
        "name": "Pró-Ilha",
        "slug": "pro-ilha",
        "latitude": -26.23010662484238,
        "longitude": -48.58156423194107
      },
      {
        "id": "stop-associacao-do-porto-sentido-centro-bairro-m26_2283-m48_5791",
        "name": "Associação do Porto (Sentido Centro/Bairro)",
        "slug": "associacao-do-porto-sentido-centro-bairro",
        "latitude": -26.228341720217372,
        "longitude": -48.579116629838914
      },
      {
        "id": "stop-posto-mediterraneo-centro-bairro-m26_2251-m48_5766",
        "name": "Posto Mediterrâneo (Centro/Bairro)",
        "slug": "posto-mediterraneo-centro-bairro",
        "latitude": -26.225063901907514,
        "longitude": -48.57663070547908
      },
      {
        "id": "stop-proximo-a-univille-centro-bairro-m26_2201-m48_5740",
        "name": "Próximo a Univille (Centro/Bairro)",
        "slug": "proximo-a-univille-centro-bairro",
        "latitude": -26.220120350734142,
        "longitude": -48.57404903955047
      },
      {
        "id": "stop-em-joao-dias-m26_2183-m48_5719",
        "name": "EM João Dias",
        "slug": "em-joao-dias",
        "latitude": -26.218306317713612,
        "longitude": -48.57186603731601
      },
      {
        "id": "stop-rua-rodovia-duque-de-caxias-8111-m26_2172-m48_5704",
        "name": "Rua Rodovia Duque de Caxias, 8111",
        "slug": "rua-rodovia-duque-de-caxias-8111",
        "latitude": -26.217178784558783,
        "longitude": -48.5703807857199
      },
      {
        "id": "stop-peixaria-do-pedrinho-m26_2155-m48_5677",
        "name": "Peixaria do Pedrinho",
        "slug": "peixaria-do-pedrinho",
        "latitude": -26.215470858755566,
        "longitude": -48.56774623787437
      },
      {
        "id": "stop-mercado-palhares-m26_2145-m48_5636",
        "name": "Mercado Palhares",
        "slug": "mercado-palhares",
        "latitude": -26.21448188915687,
        "longitude": -48.56359941296332
      },
      {
        "id": "stop-lajes-ubatuba-centro-bairro-m26_2131-m48_5583",
        "name": "Lajes Ubatuba (Centro/Bairro)",
        "slug": "lajes-ubatuba-centro-bairro",
        "latitude": -26.213124773000214,
        "longitude": -48.55826110811527
      },
      {
        "id": "stop-posto-ka-brasil-m26_2088-m48_5450",
        "name": "Posto Ká Brasil",
        "slug": "posto-ka-brasil",
        "latitude": -26.20879120798978,
        "longitude": -48.544997895494866
      },
      {
        "id": "stop-mercado-bona-centro-bairro-m26_2071-m48_5407",
        "name": "Mercado Bona (Centro/Bairro)",
        "slug": "mercado-bona-centro-bairro",
        "latitude": -26.20707248293841,
        "longitude": -48.540736957872326
      },
      {
        "id": "stop-estrada-do-forte-1-m26_2029-m48_5370",
        "name": "Estrada do Forte 1",
        "slug": "estrada-do-forte-1",
        "latitude": -26.202860516163796,
        "longitude": -48.53697643723416
      },
      {
        "id": "stop-estrada-do-forte-630-m26_2011-m48_5358",
        "name": "Estrada do Forte, 630",
        "slug": "estrada-do-forte-630",
        "latitude": -26.20112475028817,
        "longitude": -48.53579338494922
      },
      {
        "id": "stop-estrada-do-forte-25-m26_1981-m48_5323",
        "name": "Estrada do Forte 25",
        "slug": "estrada-do-forte-25",
        "latitude": -26.198052085192742,
        "longitude": -48.532262502576124
      },
      {
        "id": "stop-estrada-do-forte-4-m26_1931-m48_5309",
        "name": "Estrada do Forte 4",
        "slug": "estrada-do-forte-4",
        "latitude": -26.193119216990677,
        "longitude": -48.53090170484589
      },
      {
        "id": "stop-estrada-do-forte-5-m26_1889-m48_5336",
        "name": "Estrada do Forte 5",
        "slug": "estrada-do-forte-5",
        "latitude": -26.188916766213776,
        "longitude": -48.53361700327354
      },
      {
        "id": "stop-estrada-do-forte-6-m26_1865-m48_5341",
        "name": "Estrada do Forte 6",
        "slug": "estrada-do-forte-6",
        "latitude": -26.186540711160877,
        "longitude": -48.53409731180496
      },
      {
        "id": "stop-estrada-do-forte-7-m26_1849-m48_5345",
        "name": "Estrada do Forte 7",
        "slug": "estrada-do-forte-7",
        "latitude": -26.184935318684133,
        "longitude": -48.534467259516056
      },
      {
        "id": "stop-estrada-do-forte-8-m26_1840-m48_5340",
        "name": "Estrada do Forte 8",
        "slug": "estrada-do-forte-8",
        "latitude": -26.1839591895995,
        "longitude": -48.53401448771022
      },
      {
        "id": "stop-estrada-do-forte-9-m26_1819-m48_5338",
        "name": "Estrada do Forte 9",
        "slug": "estrada-do-forte-9",
        "latitude": -26.181932580788043,
        "longitude": -48.53379362342522
      },
      {
        "id": "stop-estrada-do-forte-10-m26_1801-m48_5340",
        "name": "Estrada do Forte 10",
        "slug": "estrada-do-forte-10",
        "latitude": -26.18007441215611,
        "longitude": -48.53397031485724
      },
      {
        "id": "stop-estrada-do-forte-11-m26_1785-m48_5340",
        "name": "Estrada do Forte 11",
        "slug": "estrada-do-forte-11",
        "latitude": -26.178543258912637,
        "longitude": -48.53401448772447
      },
      {
        "id": "stop-estrada-do-forte-12-m26_1772-m48_5331",
        "name": "Estrada do Forte 12",
        "slug": "estrada-do-forte-12",
        "latitude": -26.17719047574594,
        "longitude": -48.53308133608954
      },
      {
        "id": "stop-estrada-do-forte-13-m26_1740-m48_5333",
        "name": "Estrada do Forte 13",
        "slug": "estrada-do-forte-13",
        "latitude": -26.17398170061045,
        "longitude": -48.533335681696926
      },
      {
        "id": "stop-estrada-do-forte-14-m26_1728-m48_5345",
        "name": "Estrada do Forte 14",
        "slug": "estrada-do-forte-14",
        "latitude": -26.172762662175412,
        "longitude": -48.53447313279473
      },
      {
        "id": "stop-forte-marechal-luz-m26_1681-m48_5346",
        "name": "Forte Marechal Luz",
        "slug": "forte-marechal-luz",
        "latitude": -26.168114753304362,
        "longitude": -48.53456075459785
      },
      {
        "id": "stop-estrada-do-forte-15-m26_1733-m48_5342",
        "name": "Estrada do Forte 15",
        "slug": "estrada-do-forte-15",
        "latitude": -26.17332262855911,
        "longitude": -48.534197052437534
      },
      {
        "id": "stop-estrada-do-forte-16-m26_1746-m48_5331",
        "name": "Estrada do Forte 16",
        "slug": "estrada-do-forte-16",
        "latitude": -26.17457101554951,
        "longitude": -48.53311601462382
      },
      {
        "id": "stop-estrada-do-forte-17-m26_1772-m48_5332",
        "name": "Estrada do Forte 17",
        "slug": "estrada-do-forte-17",
        "latitude": -26.177195431024245,
        "longitude": -48.533213854661
      },
      {
        "id": "stop-estrada-do-forte-18-m26_1784-m48_5342",
        "name": "Estrada do Forte 18",
        "slug": "estrada-do-forte-18",
        "latitude": -26.178439199227615,
        "longitude": -48.534196700760226
      },
      {
        "id": "stop-estrada-do-forte-19-m26_1803-m48_5341",
        "name": "Estrada do Forte 19",
        "slug": "estrada-do-forte-19",
        "latitude": -26.180307304245265,
        "longitude": -48.53405866057154
      },
      {
        "id": "stop-estrada-do-forte-20-m26_1824-m48_5338",
        "name": "Estrada do Forte 20",
        "slug": "estrada-do-forte-20",
        "latitude": -26.182428087412184,
        "longitude": -48.533821231460934
      },
      {
        "id": "stop-estrada-do-forte-21-m26_1850-m48_5346",
        "name": "Estrada do Forte 21",
        "slug": "estrada-do-forte-21",
        "latitude": -26.185009642896798,
        "longitude": -48.534583213266075
      },
      {
        "id": "stop-estrada-do-forte-22-m26_1867-m48_5342",
        "name": "Estrada do Forte 22",
        "slug": "estrada-do-forte-22",
        "latitude": -26.18674386109734,
        "longitude": -48.53421326555498
      },
      {
        "id": "stop-estrada-do-forte-23-m26_1894-m48_5337",
        "name": "Estrada do Forte 23",
        "slug": "estrada-do-forte-23",
        "latitude": -26.189433106332924,
        "longitude": -48.53370959810906
      },
      {
        "id": "stop-estrada-do-forte-24-m26_1932-m48_5311",
        "name": "Estrada do Forte 24",
        "slug": "estrada-do-forte-24",
        "latitude": -26.19323295743177,
        "longitude": -48.531099762651344
      },
      {
        "id": "stop-gustavo-vogelsanger-1-m26_1977-m48_5298",
        "name": "Gustavo Vogelsanger 1",
        "slug": "gustavo-vogelsanger-1",
        "latitude": -26.197666459220525,
        "longitude": -48.52983036886005
      },
      {
        "id": "stop-av-bogota-1-m26_2000-m48_5295",
        "name": "Av. Bogotá 1",
        "slug": "av-bogota-1",
        "latitude": -26.199997505028865,
        "longitude": -48.52946091312311
      },
      {
        "id": "stop-av-bogota-2-m26_2018-m48_5293",
        "name": "Av. Bogotá 2",
        "slug": "av-bogota-2",
        "latitude": -26.20184500579295,
        "longitude": -48.529267945915116
      },
      {
        "id": "stop-secretaria-de-obras-das-praias-sentido-centro-bairro-m26_2043-m48_5288",
        "name": "Secretaria de Obras das Praias (Sentido Centro/Bairro)",
        "slug": "secretaria-de-obras-das-praias-sentido-centro-bairro",
        "latitude": -26.204301635690246,
        "longitude": -48.528827707110295
      },
      {
        "id": "stop-av-bogota-4-proximo-ft-m26_2063-m48_5281",
        "name": "Av. Bogotá 4 (Próximo FT)",
        "slug": "av-bogota-4-proximo-ft",
        "latitude": -26.206303864389408,
        "longitude": -48.52807668858587
      },
      {
        "id": "stop-antiga-reinert-mat-construcao-m26_2082-m48_5275",
        "name": "Antiga Reinert Mat. Construção",
        "slug": "antiga-reinert-mat-construcao",
        "latitude": -26.20816119492769,
        "longitude": -48.527452854633125
      },
      {
        "id": "stop-multipraia-society-m26_2113-m48_5263",
        "name": "Multipraia Society",
        "slug": "multipraia-society",
        "latitude": -26.211295061363288,
        "longitude": -48.52632691535398
      },
      {
        "id": "stop-proximo-rua-armazem-m26_2136-m48_5255",
        "name": "Próximo Rua Armazém",
        "slug": "proximo-rua-armazem",
        "latitude": -26.21361924673476,
        "longitude": -48.52550695601464
      },
      {
        "id": "stop-ubatuba-bebidas-m26_2160-m48_5246",
        "name": "Ubatuba Bebidas",
        "slug": "ubatuba-bebidas",
        "latitude": -26.215994914241,
        "longitude": -48.524635501638556
      },
      {
        "id": "stop-proximo-contabilidade-enseada-m26_2194-m48_5234",
        "name": "Próximo Contabilidade Enseada",
        "slug": "proximo-contabilidade-enseada",
        "latitude": -26.21936731928632,
        "longitude": -48.52342140725109
      },
      {
        "id": "stop-entrada-rua-felipe-musse-m26_2229-m48_5216",
        "name": "Entrada Rua Felipe Musse",
        "slug": "entrada-rua-felipe-musse",
        "latitude": -26.222942407526915,
        "longitude": -48.521630057592056
      },
      {
        "id": "stop-pizzaria-kanto-da-pizza-m26_2241-m48_5181",
        "name": "Pizzaria Kanto da Pizza",
        "slug": "pizzaria-kanto-da-pizza",
        "latitude": -26.224075476667394,
        "longitude": -48.51809346809671
      },
      {
        "id": "stop-mercado-pato-branco-m26_2252-m48_5148",
        "name": "Mercado Pato Branco",
        "slug": "mercado-pato-branco",
        "latitude": -26.22524944329803,
        "longitude": -48.5148267615483
      },
      {
        "id": "stop-aquamires-m26_2271-m48_5101",
        "name": "Aquamires",
        "slug": "aquamires",
        "latitude": -26.227065342408654,
        "longitude": -48.51013744052271
      },
      {
        "id": "stop-santa-catarina-3-m26_2274-m48_5045",
        "name": "Santa Catarina 3",
        "slug": "santa-catarina-3",
        "latitude": -26.227423033945513,
        "longitude": -48.504468115373506
      },
      {
        "id": "stop-santa-catarina-4-m26_2261-m48_5023",
        "name": "Santa Catarina 4",
        "slug": "santa-catarina-4",
        "latitude": -26.226063872255548,
        "longitude": -48.502338993888074
      },
      {
        "id": "stop-fundos-hotel-fragata-m26_2246-m48_5012",
        "name": "Fundos Hotel Fragata",
        "slug": "fundos-hotel-fragata",
        "latitude": -26.22455012053676,
        "longitude": -48.50120214205206
      },
      {
        "id": "stop-ponto-final-enseada-m26_2212-m48_5010",
        "name": "Ponto Final Enseada",
        "slug": "ponto-final-enseada",
        "latitude": -26.221172351839055,
        "longitude": -48.50095605474087
      },
      {
        "id": "stop-hotel-fragata-m26_2242-m48_5018",
        "name": "Hotel Fragata",
        "slug": "hotel-fragata",
        "latitude": -26.224244341484884,
        "longitude": -48.50176215003994
      },
      {
        "id": "stop-barra-shopping-m26_2257-m48_5029",
        "name": "Barra Shopping",
        "slug": "barra-shopping",
        "latitude": -26.2257353682698,
        "longitude": -48.50287775763185
      },
      {
        "id": "stop-lanches-sombreiro-m26_2266-m48_5043",
        "name": "Lanches Sombreiro",
        "slug": "lanches-sombreiro",
        "latitude": -26.226620160188624,
        "longitude": -48.50425623999173
      },
      {
        "id": "stop-ginasio-de-esportes-da-enseada-m26_2271-m48_5067",
        "name": "Ginásio de Esportes da Enseada",
        "slug": "ginasio-de-esportes-da-enseada",
        "latitude": -26.227121183946007,
        "longitude": -48.50668640934162
      },
      {
        "id": "stop-avenida-atlantica-m26_2264-m48_5102",
        "name": "Avenida Atlântica",
        "slug": "avenida-atlantica",
        "latitude": -26.226433608231176,
        "longitude": -48.51017816857125
      },
      {
        "id": "stop-bar-do-monteiro-m26_2250-m48_5134",
        "name": "Bar do Monteiro",
        "slug": "bar-do-monteiro",
        "latitude": -26.224971385901174,
        "longitude": -48.51342433610978
      },
      {
        "id": "stop-quadra-de-skate-da-enseada-m26_2238-m48_5190",
        "name": "Quadra de Skate da Enseada",
        "slug": "quadra-de-skate-da-enseada",
        "latitude": -26.223819143961126,
        "longitude": -48.5189714036618
      },
      {
        "id": "stop-pit-stop-lanches-m26_2225-m48_5219",
        "name": "Pit Stop Lanches",
        "slug": "pit-stop-lanches",
        "latitude": -26.22252632690859,
        "longitude": -48.5218592042939
      },
      {
        "id": "stop-panificadora-bannach-m26_2186-m48_5235",
        "name": "Panificadora Bannach",
        "slug": "panificadora-bannach",
        "latitude": -26.21864771524516,
        "longitude": -48.52347290227603
      },
      {
        "id": "stop-tele-alarme-m26_2171-m48_5241",
        "name": "Tele Alarme",
        "slug": "tele-alarme",
        "latitude": -26.217061017022868,
        "longitude": -48.52405717282035
      },
      {
        "id": "stop-imobiliaria-ubatuba-m26_2143-m48_5250",
        "name": "Imobiliária Ubatuba",
        "slug": "imobiliaria-ubatuba",
        "latitude": -26.214337105001405,
        "longitude": -48.525027656100704
      },
      {
        "id": "stop-multi-praia-aterros-m26_2122-m48_5258",
        "name": "Multi Praia Aterros",
        "slug": "multi-praia-aterros",
        "latitude": -26.212153309533605,
        "longitude": -48.525790178679806
      },
      {
        "id": "stop-farmacia-ubatuba-m26_2089-m48_5270",
        "name": "Farmácia Ubatuba",
        "slug": "farmacia-ubatuba",
        "latitude": -26.20889800760003,
        "longitude": -48.52696794516059
      },
      {
        "id": "stop-ft-vigilancia-m26_2063-m48_5280",
        "name": "FT Vigilância",
        "slug": "ft-vigilancia",
        "latitude": -26.206290628615903,
        "longitude": -48.528017679985716
      },
      {
        "id": "stop-secretaria-de-obras-das-praias-sentido-bairro-centro-m26_2043-m48_5287",
        "name": "Secretaria de Obras das Praias (Sentido Bairro/Centro)",
        "slug": "secretaria-de-obras-das-praias-sentido-bairro-centro",
        "latitude": -26.204276366959473,
        "longitude": -48.52870164328268
      },
      {
        "id": "stop-rua-dacar-130-m26_2000-m48_5293",
        "name": "Rua Dacar, 130",
        "slug": "rua-dacar-130",
        "latitude": -26.20000832312542,
        "longitude": -48.52934341948697
      },
      {
        "id": "stop-jacarta-1-m26_1975-m48_5299",
        "name": "Jacarta 1",
        "slug": "jacarta-1",
        "latitude": -26.19753061340607,
        "longitude": -48.529903625901376
      },
      {
        "id": "stop-estrada-do-forte-26-m26_2011-m48_5359",
        "name": "Estrada do Forte 26",
        "slug": "estrada-do-forte-26",
        "latitude": -26.201081588197173,
        "longitude": -48.53593385118549
      },
      {
        "id": "stop-estrada-do-forte-27-m26_2028-m48_5371",
        "name": "Estrada do Forte 27",
        "slug": "estrada-do-forte-27",
        "latitude": -26.202828576694163,
        "longitude": -48.53708900264268
      },
      {
        "id": "stop-eeb-rogerio-zattar-m26_2057-m48_5395",
        "name": "EEB Rogério Zattar",
        "slug": "eeb-rogerio-zattar",
        "latitude": -26.205653891075887,
        "longitude": -48.53946538341731
      },
      {
        "id": "stop-mercado-bona-bairro-centro-m26_2071-m48_5410",
        "name": "Mercado Bona (Bairro/Centro)",
        "slug": "mercado-bona-bairro-centro",
        "latitude": -26.207123411584394,
        "longitude": -48.54098806531549
      },
      {
        "id": "stop-taberna-mate-amargo-m26_2087-m48_5458",
        "name": "Taberna Mate Amargo",
        "slug": "taberna-mate-amargo",
        "latitude": -26.208703076409147,
        "longitude": -48.545839422158565
      },
      {
        "id": "stop-lajes-ubatuba-bairro-centro-m26_2131-m48_5585",
        "name": "Lajes Ubatuba (Bairro/Centro)",
        "slug": "lajes-ubatuba-bairro-centro",
        "latitude": -26.213077712368303,
        "longitude": -48.5585344276863
      },
      {
        "id": "stop-peixaria-maia-m26_2144-m48_5637",
        "name": "Peixaria Maia",
        "slug": "peixaria-maia",
        "latitude": -26.21437910000339,
        "longitude": -48.56369604109449
      },
      {
        "id": "stop-jcr-silva-m26_2154-m48_5678",
        "name": "JCR Silva",
        "slug": "jcr-silva",
        "latitude": -26.21536187840773,
        "longitude": -48.567764183098724
      },
      {
        "id": "stop-rua-rodovia-duque-de-caxias-5065-m26_2173-m48_5706",
        "name": "Rua Rodovia Duque de Caxias, 5065",
        "slug": "rua-rodovia-duque-de-caxias-5065",
        "latitude": -26.217251972753047,
        "longitude": -48.570614650577404
      },
      {
        "id": "stop-estadio-municipal-do-iperoba-m26_2185-m48_5723",
        "name": "Estádio Municipal do Iperoba",
        "slug": "estadio-municipal-do-iperoba",
        "latitude": -26.218484380518134,
        "longitude": -48.57231933065357
      },
      {
        "id": "stop-esquina-rua-raul-vanine-m26_2198-m48_5740",
        "name": "Esquina Rua Raul Vanine",
        "slug": "esquina-rua-raul-vanine",
        "latitude": -26.219766636077885,
        "longitude": -48.57398734874991
      },
      {
        "id": "stop-posto-mediterraneo-bairro-centro-m26_2250-m48_5767",
        "name": "Posto Mediterrâneo (Bairro/Centro)",
        "slug": "posto-mediterraneo-bairro-centro",
        "latitude": -26.224979687810706,
        "longitude": -48.5767460404703
      },
      {
        "id": "stop-associacao-do-porto-sentido-bairro-centro-m26_2282-m48_5791",
        "name": "Associação do Porto (Sentido Bairro/Centro)",
        "slug": "associacao-do-porto-sentido-bairro-centro",
        "latitude": -26.228158860397553,
        "longitude": -48.579124676466215
      },
      {
        "id": "stop-serraria-do-ingo-m26_2301-m48_5817",
        "name": "Serraria do Ingo",
        "slug": "serraria-do-ingo",
        "latitude": -26.230080158708976,
        "longitude": -48.58174125774154
      },
      {
        "id": "stop-km-3-sentido-bairro-centro-m26_2339-m48_5870",
        "name": "KM 3 (Sentido Bairro/Centro)",
        "slug": "km-3-sentido-bairro-centro",
        "latitude": -26.23390449505082,
        "longitude": -48.58703084559732
      },
      {
        "id": "stop-porto-seco-rocha-sentido-bairro-centro-m26_2355-m48_5891",
        "name": "Porto Seco Rocha (Sentido Bairro/Centro)",
        "slug": "porto-seco-rocha-sentido-bairro-centro",
        "latitude": -26.235482745167452,
        "longitude": -48.58909898844154
      },
      {
        "id": "stop-esquina-r-bem-vindo-alves-da-silva-m26_2389-m48_5937",
        "name": "Esquina R. Bem-vindo Alves da Silva",
        "slug": "esquina-r-bem-vindo-alves-da-silva",
        "latitude": -26.238864361467705,
        "longitude": -48.59370083037695
      },
      {
        "id": "stop-em-franklin-de-oliveira-sentido-bairro-centro-m26_2445-m48_6014",
        "name": "EM Franklin de Oliveira (Sentido Bairro/Centro)",
        "slug": "em-franklin-de-oliveira-sentido-bairro-centro",
        "latitude": -26.24452653610626,
        "longitude": -48.60142865356738
      },
      {
        "id": "stop-panificadora-bom-dia-m26_2476-m48_6055",
        "name": "Panificadora Bom Dia",
        "slug": "panificadora-bom-dia",
        "latitude": -26.24757391048873,
        "longitude": -48.60554053024434
      },
      {
        "id": "stop-antigo-ldm-terminais-m26_2504-m48_6093",
        "name": "Antigo LDM Terminais",
        "slug": "antigo-ldm-terminais",
        "latitude": -26.250417020108006,
        "longitude": -48.60934285704239
      },
      {
        "id": "stop-madeireira-regis-m26_2527-m48_6166",
        "name": "Madeireira Régis",
        "slug": "madeireira-regis",
        "latitude": -26.252657970837262,
        "longitude": -48.61662799773309
      },
      {
        "id": "stop-antigo-garcez-material-de-construcao-m26_2503-m48_6200",
        "name": "Antigo Garcez Material de Construção",
        "slug": "antigo-garcez-material-de-construcao",
        "latitude": -26.250311727588592,
        "longitude": -48.61998411593799
      },
      {
        "id": "stop-delta-veiculos-sentido-bairro-centro-m26_2494-m48_6212",
        "name": "Delta Veículos (Sentido Bairro/Centro)",
        "slug": "delta-veiculos-sentido-bairro-centro",
        "latitude": -26.249425446806114,
        "longitude": -48.62124387040831
      },
      {
        "id": "stop-almirante-barroso-8-m26_2476-m48_6213",
        "name": "Almirante Barroso 8",
        "slug": "almirante-barroso-8",
        "latitude": -26.24758858850027,
        "longitude": -48.62128739762634
      },
      {
        "id": "stop-material-de-construcao-avenida-m26_2449-m48_6220",
        "name": "Material de Construção Avenida",
        "slug": "material-de-construcao-avenida",
        "latitude": -26.244880230025736,
        "longitude": -48.62203531296437
      },
      {
        "id": "stop-eeb-victor-konder-sentido-bairro-centro-m26_2441-m48_6223",
        "name": "EEB Victor Konder (Sentido Bairro/Centro)",
        "slug": "eeb-victor-konder-sentido-bairro-centro",
        "latitude": -26.244116288772304,
        "longitude": -48.62229333466024
      },
      {
        "id": "stop-breis-contabilidade-m26_2432-m48_6250",
        "name": "Breis Contabilidade",
        "slug": "breis-contabilidade",
        "latitude": -26.243220154542165,
        "longitude": -48.625000537410585
      },
      {
        "id": "stop-cras-m26_2433-m48_6277",
        "name": "CRAS",
        "slug": "cras",
        "latitude": -26.243334727221654,
        "longitude": -48.627704456461984
      },
      {
        "id": "stop-ines-zardo-sentido-centro-m26_2430-m48_6298",
        "name": "Inês Zardo (sentido Centro)",
        "slug": "ines-zardo-sentido-centro",
        "latitude": -26.24298830041126,
        "longitude": -48.62977109850075
      },
      {
        "id": "stop-regencia-contabilidade-imoveis-m26_2455-m48_6330",
        "name": "Regência Contabilidade/Imóveis",
        "slug": "regencia-contabilidade-imoveis",
        "latitude": -26.245503479919236,
        "longitude": -48.63295432583705
      },
      {
        "id": "stop-antiga-multipaper-sentido-bairro-centro-m26_2445-m48_6344",
        "name": "Antiga Multipaper (Sentido Bairro/Centro)",
        "slug": "antiga-multipaper-sentido-bairro-centro",
        "latitude": -26.24448063883166,
        "longitude": -48.634446201953615
      },
      {
        "id": "stop-tapecar-m26_2426-m48_6353",
        "name": "Tapecar",
        "slug": "tapecar",
        "latitude": -26.24256951527034,
        "longitude": -48.63530239360171
      },
      {
        "id": "stop-posto-rod-oil-m26_2420-m48_6373",
        "name": "Posto Rod Oil",
        "slug": "posto-rod-oil",
        "latitude": -26.242030120062743,
        "longitude": -48.63729731437912
      },
      {
        "id": "stop-praca-dr-getulio-vargas-5-m26_2434-m48_6379",
        "name": "Praça Dr. Getúlio Vargas 5",
        "slug": "praca-dr-getulio-vargas-5",
        "latitude": -26.243437512602945,
        "longitude": -48.637910711972246
      }
    ],
    "lineStops": [
      {
        "id": "line-0103-outbound-stop-1",
        "directionId": "line-0103-outbound",
        "stopId": "stop-praca-dr-getulio-vargas-1-m26_2434-m48_6379",
        "sequence": 1,
        "isTimingPoint": true
      },
      {
        "id": "line-0103-outbound-stop-2",
        "directionId": "line-0103-outbound",
        "stopId": "stop-ogmo-sfs-m26_2435-m48_6351",
        "sequence": 2,
        "isTimingPoint": false
      },
      {
        "id": "line-0103-outbound-stop-3",
        "directionId": "line-0103-outbound",
        "stopId": "stop-antiga-multipaper-sentido-centro-bairro-m26_2447-m48_6347",
        "sequence": 3,
        "isTimingPoint": false
      },
      {
        "id": "line-0103-outbound-stop-4",
        "directionId": "line-0103-outbound",
        "stopId": "stop-carioca-bica-d-agua-m26_2466-m48_6355",
        "sequence": 4,
        "isTimingPoint": false
      },
      {
        "id": "line-0103-outbound-stop-5",
        "directionId": "line-0103-outbound",
        "stopId": "stop-colegio-adventista-m26_2478-m48_6373",
        "sequence": 5,
        "isTimingPoint": false
      },
      {
        "id": "line-0103-outbound-stop-6",
        "directionId": "line-0103-outbound",
        "stopId": "stop-restaurante-tom-brasil-m26_2492-m48_6384",
        "sequence": 6,
        "isTimingPoint": false
      },
      {
        "id": "line-0103-outbound-stop-7",
        "directionId": "line-0103-outbound",
        "stopId": "stop-rodoviaria-velha-m26_2492-m48_6356",
        "sequence": 7,
        "isTimingPoint": false
      },
      {
        "id": "line-0103-outbound-stop-8",
        "directionId": "line-0103-outbound",
        "stopId": "stop-millium-m26_2477-m48_6345",
        "sequence": 8,
        "isTimingPoint": false
      },
      {
        "id": "line-0103-outbound-stop-9",
        "directionId": "line-0103-outbound",
        "stopId": "stop-colegio-santa-catarina-rua-barao-do-rio-branco-730-m26_2452-m48_6326",
        "sequence": 9,
        "isTimingPoint": false
      },
      {
        "id": "line-0103-outbound-stop-10",
        "directionId": "line-0103-outbound",
        "stopId": "stop-igreja-quadrangular-antigo-super-10-m26_2463-m48_6293",
        "sequence": 10,
        "isTimingPoint": false
      },
      {
        "id": "line-0103-outbound-stop-11",
        "directionId": "line-0103-outbound",
        "stopId": "stop-auto-escola-sao-francisco-m26_2472-m48_6275",
        "sequence": 11,
        "isTimingPoint": false
      },
      {
        "id": "line-0103-outbound-stop-12",
        "directionId": "line-0103-outbound",
        "stopId": "stop-viacao-verdes-mares-m26_2492-m48_6231",
        "sequence": 12,
        "isTimingPoint": false
      },
      {
        "id": "line-0103-outbound-stop-13",
        "directionId": "line-0103-outbound",
        "stopId": "stop-antiga-souza-vidal-m26_2513-m48_6188",
        "sequence": 13,
        "isTimingPoint": false
      },
      {
        "id": "line-0103-outbound-stop-14",
        "directionId": "line-0103-outbound",
        "stopId": "stop-borracharia-do-eldo-m26_2526-m48_6170",
        "sequence": 14,
        "isTimingPoint": false
      },
      {
        "id": "line-0103-outbound-stop-15",
        "directionId": "line-0103-outbound",
        "stopId": "stop-gelo-da-ilha-m26_2535-m48_6142",
        "sequence": 15,
        "isTimingPoint": false
      },
      {
        "id": "line-0103-outbound-stop-16",
        "directionId": "line-0103-outbound",
        "stopId": "stop-polimix-m26_2502-m48_6088",
        "sequence": 16,
        "isTimingPoint": false
      },
      {
        "id": "line-0103-outbound-stop-17",
        "directionId": "line-0103-outbound",
        "stopId": "stop-padaria-km-1-5-m26_2477-m48_6055",
        "sequence": 17,
        "isTimingPoint": false
      },
      {
        "id": "line-0103-outbound-stop-18",
        "directionId": "line-0103-outbound",
        "stopId": "stop-em-franklin-de-oliveira-sentido-centro-bairro-m26_2446-m48_6013",
        "sequence": 18,
        "isTimingPoint": false
      },
      {
        "id": "line-0103-outbound-stop-19",
        "directionId": "line-0103-outbound",
        "stopId": "stop-antes-do-rocha-m26_2387-m48_5932",
        "sequence": 19,
        "isTimingPoint": false
      },
      {
        "id": "line-0103-outbound-stop-20",
        "directionId": "line-0103-outbound",
        "stopId": "stop-porto-seco-rocha-sentido-centro-bairro-m26_2358-m48_5893",
        "sequence": 20,
        "isTimingPoint": false
      },
      {
        "id": "line-0103-outbound-stop-21",
        "directionId": "line-0103-outbound",
        "stopId": "stop-km-3-sentido-centro-bairro-m26_2340-m48_5869",
        "sequence": 21,
        "isTimingPoint": false
      },
      {
        "id": "line-0103-outbound-stop-22",
        "directionId": "line-0103-outbound",
        "stopId": "stop-pro-ilha-m26_2301-m48_5816",
        "sequence": 22,
        "isTimingPoint": false
      },
      {
        "id": "line-0103-outbound-stop-23",
        "directionId": "line-0103-outbound",
        "stopId": "stop-associacao-do-porto-sentido-centro-bairro-m26_2283-m48_5791",
        "sequence": 23,
        "isTimingPoint": false
      },
      {
        "id": "line-0103-outbound-stop-24",
        "directionId": "line-0103-outbound",
        "stopId": "stop-posto-mediterraneo-centro-bairro-m26_2251-m48_5766",
        "sequence": 24,
        "isTimingPoint": false
      },
      {
        "id": "line-0103-outbound-stop-25",
        "directionId": "line-0103-outbound",
        "stopId": "stop-proximo-a-univille-centro-bairro-m26_2201-m48_5740",
        "sequence": 25,
        "isTimingPoint": false
      },
      {
        "id": "line-0103-outbound-stop-26",
        "directionId": "line-0103-outbound",
        "stopId": "stop-em-joao-dias-m26_2183-m48_5719",
        "sequence": 26,
        "isTimingPoint": false
      },
      {
        "id": "line-0103-outbound-stop-27",
        "directionId": "line-0103-outbound",
        "stopId": "stop-rua-rodovia-duque-de-caxias-8111-m26_2172-m48_5704",
        "sequence": 27,
        "isTimingPoint": false
      },
      {
        "id": "line-0103-outbound-stop-28",
        "directionId": "line-0103-outbound",
        "stopId": "stop-peixaria-do-pedrinho-m26_2155-m48_5677",
        "sequence": 28,
        "isTimingPoint": false
      },
      {
        "id": "line-0103-outbound-stop-29",
        "directionId": "line-0103-outbound",
        "stopId": "stop-mercado-palhares-m26_2145-m48_5636",
        "sequence": 29,
        "isTimingPoint": false
      },
      {
        "id": "line-0103-outbound-stop-30",
        "directionId": "line-0103-outbound",
        "stopId": "stop-lajes-ubatuba-centro-bairro-m26_2131-m48_5583",
        "sequence": 30,
        "isTimingPoint": false
      },
      {
        "id": "line-0103-outbound-stop-31",
        "directionId": "line-0103-outbound",
        "stopId": "stop-posto-ka-brasil-m26_2088-m48_5450",
        "sequence": 31,
        "isTimingPoint": false
      },
      {
        "id": "line-0103-outbound-stop-32",
        "directionId": "line-0103-outbound",
        "stopId": "stop-mercado-bona-centro-bairro-m26_2071-m48_5407",
        "sequence": 32,
        "isTimingPoint": false
      },
      {
        "id": "line-0103-outbound-stop-33",
        "directionId": "line-0103-outbound",
        "stopId": "stop-estrada-do-forte-1-m26_2029-m48_5370",
        "sequence": 33,
        "isTimingPoint": false
      },
      {
        "id": "line-0103-outbound-stop-34",
        "directionId": "line-0103-outbound",
        "stopId": "stop-estrada-do-forte-630-m26_2011-m48_5358",
        "sequence": 34,
        "isTimingPoint": false
      },
      {
        "id": "line-0103-outbound-stop-35",
        "directionId": "line-0103-outbound",
        "stopId": "stop-estrada-do-forte-25-m26_1981-m48_5323",
        "sequence": 35,
        "isTimingPoint": false
      },
      {
        "id": "line-0103-outbound-stop-36",
        "directionId": "line-0103-outbound",
        "stopId": "stop-estrada-do-forte-4-m26_1931-m48_5309",
        "sequence": 36,
        "isTimingPoint": false
      },
      {
        "id": "line-0103-outbound-stop-37",
        "directionId": "line-0103-outbound",
        "stopId": "stop-estrada-do-forte-5-m26_1889-m48_5336",
        "sequence": 37,
        "isTimingPoint": false
      },
      {
        "id": "line-0103-outbound-stop-38",
        "directionId": "line-0103-outbound",
        "stopId": "stop-estrada-do-forte-6-m26_1865-m48_5341",
        "sequence": 38,
        "isTimingPoint": false
      },
      {
        "id": "line-0103-outbound-stop-39",
        "directionId": "line-0103-outbound",
        "stopId": "stop-estrada-do-forte-7-m26_1849-m48_5345",
        "sequence": 39,
        "isTimingPoint": false
      },
      {
        "id": "line-0103-outbound-stop-40",
        "directionId": "line-0103-outbound",
        "stopId": "stop-estrada-do-forte-8-m26_1840-m48_5340",
        "sequence": 40,
        "isTimingPoint": false
      },
      {
        "id": "line-0103-outbound-stop-41",
        "directionId": "line-0103-outbound",
        "stopId": "stop-estrada-do-forte-9-m26_1819-m48_5338",
        "sequence": 41,
        "isTimingPoint": false
      },
      {
        "id": "line-0103-outbound-stop-42",
        "directionId": "line-0103-outbound",
        "stopId": "stop-estrada-do-forte-10-m26_1801-m48_5340",
        "sequence": 42,
        "isTimingPoint": false
      },
      {
        "id": "line-0103-outbound-stop-43",
        "directionId": "line-0103-outbound",
        "stopId": "stop-estrada-do-forte-11-m26_1785-m48_5340",
        "sequence": 43,
        "isTimingPoint": false
      },
      {
        "id": "line-0103-outbound-stop-44",
        "directionId": "line-0103-outbound",
        "stopId": "stop-estrada-do-forte-12-m26_1772-m48_5331",
        "sequence": 44,
        "isTimingPoint": false
      },
      {
        "id": "line-0103-outbound-stop-45",
        "directionId": "line-0103-outbound",
        "stopId": "stop-estrada-do-forte-13-m26_1740-m48_5333",
        "sequence": 45,
        "isTimingPoint": false
      },
      {
        "id": "line-0103-outbound-stop-46",
        "directionId": "line-0103-outbound",
        "stopId": "stop-estrada-do-forte-14-m26_1728-m48_5345",
        "sequence": 46,
        "isTimingPoint": false
      },
      {
        "id": "line-0103-outbound-stop-47",
        "directionId": "line-0103-outbound",
        "stopId": "stop-forte-marechal-luz-m26_1681-m48_5346",
        "sequence": 47,
        "isTimingPoint": false
      },
      {
        "id": "line-0103-outbound-stop-48",
        "directionId": "line-0103-outbound",
        "stopId": "stop-estrada-do-forte-15-m26_1733-m48_5342",
        "sequence": 48,
        "isTimingPoint": false
      },
      {
        "id": "line-0103-outbound-stop-49",
        "directionId": "line-0103-outbound",
        "stopId": "stop-estrada-do-forte-16-m26_1746-m48_5331",
        "sequence": 49,
        "isTimingPoint": false
      },
      {
        "id": "line-0103-outbound-stop-50",
        "directionId": "line-0103-outbound",
        "stopId": "stop-estrada-do-forte-17-m26_1772-m48_5332",
        "sequence": 50,
        "isTimingPoint": false
      },
      {
        "id": "line-0103-outbound-stop-51",
        "directionId": "line-0103-outbound",
        "stopId": "stop-estrada-do-forte-18-m26_1784-m48_5342",
        "sequence": 51,
        "isTimingPoint": false
      },
      {
        "id": "line-0103-outbound-stop-52",
        "directionId": "line-0103-outbound",
        "stopId": "stop-estrada-do-forte-19-m26_1803-m48_5341",
        "sequence": 52,
        "isTimingPoint": false
      },
      {
        "id": "line-0103-outbound-stop-53",
        "directionId": "line-0103-outbound",
        "stopId": "stop-estrada-do-forte-20-m26_1824-m48_5338",
        "sequence": 53,
        "isTimingPoint": false
      },
      {
        "id": "line-0103-outbound-stop-54",
        "directionId": "line-0103-outbound",
        "stopId": "stop-estrada-do-forte-21-m26_1850-m48_5346",
        "sequence": 54,
        "isTimingPoint": false
      },
      {
        "id": "line-0103-outbound-stop-55",
        "directionId": "line-0103-outbound",
        "stopId": "stop-estrada-do-forte-22-m26_1867-m48_5342",
        "sequence": 55,
        "isTimingPoint": false
      },
      {
        "id": "line-0103-outbound-stop-56",
        "directionId": "line-0103-outbound",
        "stopId": "stop-estrada-do-forte-23-m26_1894-m48_5337",
        "sequence": 56,
        "isTimingPoint": false
      },
      {
        "id": "line-0103-outbound-stop-57",
        "directionId": "line-0103-outbound",
        "stopId": "stop-estrada-do-forte-24-m26_1932-m48_5311",
        "sequence": 57,
        "isTimingPoint": false
      },
      {
        "id": "line-0103-outbound-stop-58",
        "directionId": "line-0103-outbound",
        "stopId": "stop-gustavo-vogelsanger-1-m26_1977-m48_5298",
        "sequence": 58,
        "isTimingPoint": false
      },
      {
        "id": "line-0103-outbound-stop-59",
        "directionId": "line-0103-outbound",
        "stopId": "stop-av-bogota-1-m26_2000-m48_5295",
        "sequence": 59,
        "isTimingPoint": false
      },
      {
        "id": "line-0103-outbound-stop-60",
        "directionId": "line-0103-outbound",
        "stopId": "stop-av-bogota-2-m26_2018-m48_5293",
        "sequence": 60,
        "isTimingPoint": false
      },
      {
        "id": "line-0103-outbound-stop-61",
        "directionId": "line-0103-outbound",
        "stopId": "stop-secretaria-de-obras-das-praias-sentido-centro-bairro-m26_2043-m48_5288",
        "sequence": 61,
        "isTimingPoint": false
      },
      {
        "id": "line-0103-outbound-stop-62",
        "directionId": "line-0103-outbound",
        "stopId": "stop-av-bogota-4-proximo-ft-m26_2063-m48_5281",
        "sequence": 62,
        "isTimingPoint": false
      },
      {
        "id": "line-0103-outbound-stop-63",
        "directionId": "line-0103-outbound",
        "stopId": "stop-antiga-reinert-mat-construcao-m26_2082-m48_5275",
        "sequence": 63,
        "isTimingPoint": false
      },
      {
        "id": "line-0103-outbound-stop-64",
        "directionId": "line-0103-outbound",
        "stopId": "stop-multipraia-society-m26_2113-m48_5263",
        "sequence": 64,
        "isTimingPoint": false
      },
      {
        "id": "line-0103-outbound-stop-65",
        "directionId": "line-0103-outbound",
        "stopId": "stop-proximo-rua-armazem-m26_2136-m48_5255",
        "sequence": 65,
        "isTimingPoint": false
      },
      {
        "id": "line-0103-outbound-stop-66",
        "directionId": "line-0103-outbound",
        "stopId": "stop-ubatuba-bebidas-m26_2160-m48_5246",
        "sequence": 66,
        "isTimingPoint": false
      },
      {
        "id": "line-0103-outbound-stop-67",
        "directionId": "line-0103-outbound",
        "stopId": "stop-proximo-contabilidade-enseada-m26_2194-m48_5234",
        "sequence": 67,
        "isTimingPoint": false
      },
      {
        "id": "line-0103-outbound-stop-68",
        "directionId": "line-0103-outbound",
        "stopId": "stop-entrada-rua-felipe-musse-m26_2229-m48_5216",
        "sequence": 68,
        "isTimingPoint": false
      },
      {
        "id": "line-0103-outbound-stop-69",
        "directionId": "line-0103-outbound",
        "stopId": "stop-pizzaria-kanto-da-pizza-m26_2241-m48_5181",
        "sequence": 69,
        "isTimingPoint": false
      },
      {
        "id": "line-0103-outbound-stop-70",
        "directionId": "line-0103-outbound",
        "stopId": "stop-mercado-pato-branco-m26_2252-m48_5148",
        "sequence": 70,
        "isTimingPoint": false
      },
      {
        "id": "line-0103-outbound-stop-71",
        "directionId": "line-0103-outbound",
        "stopId": "stop-aquamires-m26_2271-m48_5101",
        "sequence": 71,
        "isTimingPoint": false
      },
      {
        "id": "line-0103-outbound-stop-72",
        "directionId": "line-0103-outbound",
        "stopId": "stop-santa-catarina-3-m26_2274-m48_5045",
        "sequence": 72,
        "isTimingPoint": false
      },
      {
        "id": "line-0103-outbound-stop-73",
        "directionId": "line-0103-outbound",
        "stopId": "stop-santa-catarina-4-m26_2261-m48_5023",
        "sequence": 73,
        "isTimingPoint": false
      },
      {
        "id": "line-0103-outbound-stop-74",
        "directionId": "line-0103-outbound",
        "stopId": "stop-fundos-hotel-fragata-m26_2246-m48_5012",
        "sequence": 74,
        "isTimingPoint": false
      },
      {
        "id": "line-0103-outbound-stop-75",
        "directionId": "line-0103-outbound",
        "stopId": "stop-ponto-final-enseada-m26_2212-m48_5010",
        "sequence": 75,
        "isTimingPoint": true
      },
      {
        "id": "line-0103-inbound-stop-1",
        "directionId": "line-0103-inbound",
        "stopId": "stop-ponto-final-enseada-m26_2212-m48_5010",
        "sequence": 1,
        "isTimingPoint": true
      },
      {
        "id": "line-0103-inbound-stop-2",
        "directionId": "line-0103-inbound",
        "stopId": "stop-hotel-fragata-m26_2242-m48_5018",
        "sequence": 2,
        "isTimingPoint": false
      },
      {
        "id": "line-0103-inbound-stop-3",
        "directionId": "line-0103-inbound",
        "stopId": "stop-barra-shopping-m26_2257-m48_5029",
        "sequence": 3,
        "isTimingPoint": false
      },
      {
        "id": "line-0103-inbound-stop-4",
        "directionId": "line-0103-inbound",
        "stopId": "stop-lanches-sombreiro-m26_2266-m48_5043",
        "sequence": 4,
        "isTimingPoint": false
      },
      {
        "id": "line-0103-inbound-stop-5",
        "directionId": "line-0103-inbound",
        "stopId": "stop-ginasio-de-esportes-da-enseada-m26_2271-m48_5067",
        "sequence": 5,
        "isTimingPoint": false
      },
      {
        "id": "line-0103-inbound-stop-6",
        "directionId": "line-0103-inbound",
        "stopId": "stop-avenida-atlantica-m26_2264-m48_5102",
        "sequence": 6,
        "isTimingPoint": false
      },
      {
        "id": "line-0103-inbound-stop-7",
        "directionId": "line-0103-inbound",
        "stopId": "stop-bar-do-monteiro-m26_2250-m48_5134",
        "sequence": 7,
        "isTimingPoint": false
      },
      {
        "id": "line-0103-inbound-stop-8",
        "directionId": "line-0103-inbound",
        "stopId": "stop-quadra-de-skate-da-enseada-m26_2238-m48_5190",
        "sequence": 8,
        "isTimingPoint": false
      },
      {
        "id": "line-0103-inbound-stop-9",
        "directionId": "line-0103-inbound",
        "stopId": "stop-pit-stop-lanches-m26_2225-m48_5219",
        "sequence": 9,
        "isTimingPoint": false
      },
      {
        "id": "line-0103-inbound-stop-10",
        "directionId": "line-0103-inbound",
        "stopId": "stop-panificadora-bannach-m26_2186-m48_5235",
        "sequence": 10,
        "isTimingPoint": false
      },
      {
        "id": "line-0103-inbound-stop-11",
        "directionId": "line-0103-inbound",
        "stopId": "stop-tele-alarme-m26_2171-m48_5241",
        "sequence": 11,
        "isTimingPoint": false
      },
      {
        "id": "line-0103-inbound-stop-12",
        "directionId": "line-0103-inbound",
        "stopId": "stop-imobiliaria-ubatuba-m26_2143-m48_5250",
        "sequence": 12,
        "isTimingPoint": false
      },
      {
        "id": "line-0103-inbound-stop-13",
        "directionId": "line-0103-inbound",
        "stopId": "stop-multi-praia-aterros-m26_2122-m48_5258",
        "sequence": 13,
        "isTimingPoint": false
      },
      {
        "id": "line-0103-inbound-stop-14",
        "directionId": "line-0103-inbound",
        "stopId": "stop-farmacia-ubatuba-m26_2089-m48_5270",
        "sequence": 14,
        "isTimingPoint": false
      },
      {
        "id": "line-0103-inbound-stop-15",
        "directionId": "line-0103-inbound",
        "stopId": "stop-ft-vigilancia-m26_2063-m48_5280",
        "sequence": 15,
        "isTimingPoint": false
      },
      {
        "id": "line-0103-inbound-stop-16",
        "directionId": "line-0103-inbound",
        "stopId": "stop-secretaria-de-obras-das-praias-sentido-bairro-centro-m26_2043-m48_5287",
        "sequence": 16,
        "isTimingPoint": false
      },
      {
        "id": "line-0103-inbound-stop-17",
        "directionId": "line-0103-inbound",
        "stopId": "stop-av-bogota-2-m26_2018-m48_5293",
        "sequence": 17,
        "isTimingPoint": false
      },
      {
        "id": "line-0103-inbound-stop-18",
        "directionId": "line-0103-inbound",
        "stopId": "stop-rua-dacar-130-m26_2000-m48_5293",
        "sequence": 18,
        "isTimingPoint": false
      },
      {
        "id": "line-0103-inbound-stop-19",
        "directionId": "line-0103-inbound",
        "stopId": "stop-jacarta-1-m26_1975-m48_5299",
        "sequence": 19,
        "isTimingPoint": false
      },
      {
        "id": "line-0103-inbound-stop-20",
        "directionId": "line-0103-inbound",
        "stopId": "stop-estrada-do-forte-4-m26_1931-m48_5309",
        "sequence": 20,
        "isTimingPoint": false
      },
      {
        "id": "line-0103-inbound-stop-21",
        "directionId": "line-0103-inbound",
        "stopId": "stop-estrada-do-forte-5-m26_1889-m48_5336",
        "sequence": 21,
        "isTimingPoint": false
      },
      {
        "id": "line-0103-inbound-stop-22",
        "directionId": "line-0103-inbound",
        "stopId": "stop-estrada-do-forte-6-m26_1865-m48_5341",
        "sequence": 22,
        "isTimingPoint": false
      },
      {
        "id": "line-0103-inbound-stop-23",
        "directionId": "line-0103-inbound",
        "stopId": "stop-estrada-do-forte-7-m26_1849-m48_5345",
        "sequence": 23,
        "isTimingPoint": false
      },
      {
        "id": "line-0103-inbound-stop-24",
        "directionId": "line-0103-inbound",
        "stopId": "stop-estrada-do-forte-8-m26_1840-m48_5340",
        "sequence": 24,
        "isTimingPoint": false
      },
      {
        "id": "line-0103-inbound-stop-25",
        "directionId": "line-0103-inbound",
        "stopId": "stop-estrada-do-forte-9-m26_1819-m48_5338",
        "sequence": 25,
        "isTimingPoint": false
      },
      {
        "id": "line-0103-inbound-stop-26",
        "directionId": "line-0103-inbound",
        "stopId": "stop-estrada-do-forte-10-m26_1801-m48_5340",
        "sequence": 26,
        "isTimingPoint": false
      },
      {
        "id": "line-0103-inbound-stop-27",
        "directionId": "line-0103-inbound",
        "stopId": "stop-estrada-do-forte-11-m26_1785-m48_5340",
        "sequence": 27,
        "isTimingPoint": false
      },
      {
        "id": "line-0103-inbound-stop-28",
        "directionId": "line-0103-inbound",
        "stopId": "stop-estrada-do-forte-12-m26_1772-m48_5331",
        "sequence": 28,
        "isTimingPoint": false
      },
      {
        "id": "line-0103-inbound-stop-29",
        "directionId": "line-0103-inbound",
        "stopId": "stop-estrada-do-forte-13-m26_1740-m48_5333",
        "sequence": 29,
        "isTimingPoint": false
      },
      {
        "id": "line-0103-inbound-stop-30",
        "directionId": "line-0103-inbound",
        "stopId": "stop-estrada-do-forte-14-m26_1728-m48_5345",
        "sequence": 30,
        "isTimingPoint": false
      },
      {
        "id": "line-0103-inbound-stop-31",
        "directionId": "line-0103-inbound",
        "stopId": "stop-forte-marechal-luz-m26_1681-m48_5346",
        "sequence": 31,
        "isTimingPoint": false
      },
      {
        "id": "line-0103-inbound-stop-32",
        "directionId": "line-0103-inbound",
        "stopId": "stop-estrada-do-forte-15-m26_1733-m48_5342",
        "sequence": 32,
        "isTimingPoint": false
      },
      {
        "id": "line-0103-inbound-stop-33",
        "directionId": "line-0103-inbound",
        "stopId": "stop-estrada-do-forte-16-m26_1746-m48_5331",
        "sequence": 33,
        "isTimingPoint": false
      },
      {
        "id": "line-0103-inbound-stop-34",
        "directionId": "line-0103-inbound",
        "stopId": "stop-estrada-do-forte-17-m26_1772-m48_5332",
        "sequence": 34,
        "isTimingPoint": false
      },
      {
        "id": "line-0103-inbound-stop-35",
        "directionId": "line-0103-inbound",
        "stopId": "stop-estrada-do-forte-18-m26_1784-m48_5342",
        "sequence": 35,
        "isTimingPoint": false
      },
      {
        "id": "line-0103-inbound-stop-36",
        "directionId": "line-0103-inbound",
        "stopId": "stop-estrada-do-forte-19-m26_1803-m48_5341",
        "sequence": 36,
        "isTimingPoint": false
      },
      {
        "id": "line-0103-inbound-stop-37",
        "directionId": "line-0103-inbound",
        "stopId": "stop-estrada-do-forte-20-m26_1824-m48_5338",
        "sequence": 37,
        "isTimingPoint": false
      },
      {
        "id": "line-0103-inbound-stop-38",
        "directionId": "line-0103-inbound",
        "stopId": "stop-estrada-do-forte-21-m26_1850-m48_5346",
        "sequence": 38,
        "isTimingPoint": false
      },
      {
        "id": "line-0103-inbound-stop-39",
        "directionId": "line-0103-inbound",
        "stopId": "stop-estrada-do-forte-22-m26_1867-m48_5342",
        "sequence": 39,
        "isTimingPoint": false
      },
      {
        "id": "line-0103-inbound-stop-40",
        "directionId": "line-0103-inbound",
        "stopId": "stop-estrada-do-forte-23-m26_1894-m48_5337",
        "sequence": 40,
        "isTimingPoint": false
      },
      {
        "id": "line-0103-inbound-stop-41",
        "directionId": "line-0103-inbound",
        "stopId": "stop-estrada-do-forte-24-m26_1932-m48_5311",
        "sequence": 41,
        "isTimingPoint": false
      },
      {
        "id": "line-0103-inbound-stop-42",
        "directionId": "line-0103-inbound",
        "stopId": "stop-estrada-do-forte-25-m26_1981-m48_5323",
        "sequence": 42,
        "isTimingPoint": false
      },
      {
        "id": "line-0103-inbound-stop-43",
        "directionId": "line-0103-inbound",
        "stopId": "stop-estrada-do-forte-26-m26_2011-m48_5359",
        "sequence": 43,
        "isTimingPoint": false
      },
      {
        "id": "line-0103-inbound-stop-44",
        "directionId": "line-0103-inbound",
        "stopId": "stop-estrada-do-forte-27-m26_2028-m48_5371",
        "sequence": 44,
        "isTimingPoint": false
      },
      {
        "id": "line-0103-inbound-stop-45",
        "directionId": "line-0103-inbound",
        "stopId": "stop-eeb-rogerio-zattar-m26_2057-m48_5395",
        "sequence": 45,
        "isTimingPoint": false
      },
      {
        "id": "line-0103-inbound-stop-46",
        "directionId": "line-0103-inbound",
        "stopId": "stop-mercado-bona-bairro-centro-m26_2071-m48_5410",
        "sequence": 46,
        "isTimingPoint": false
      },
      {
        "id": "line-0103-inbound-stop-47",
        "directionId": "line-0103-inbound",
        "stopId": "stop-taberna-mate-amargo-m26_2087-m48_5458",
        "sequence": 47,
        "isTimingPoint": false
      },
      {
        "id": "line-0103-inbound-stop-48",
        "directionId": "line-0103-inbound",
        "stopId": "stop-lajes-ubatuba-bairro-centro-m26_2131-m48_5585",
        "sequence": 48,
        "isTimingPoint": false
      },
      {
        "id": "line-0103-inbound-stop-49",
        "directionId": "line-0103-inbound",
        "stopId": "stop-peixaria-maia-m26_2144-m48_5637",
        "sequence": 49,
        "isTimingPoint": false
      },
      {
        "id": "line-0103-inbound-stop-50",
        "directionId": "line-0103-inbound",
        "stopId": "stop-jcr-silva-m26_2154-m48_5678",
        "sequence": 50,
        "isTimingPoint": false
      },
      {
        "id": "line-0103-inbound-stop-51",
        "directionId": "line-0103-inbound",
        "stopId": "stop-rua-rodovia-duque-de-caxias-5065-m26_2173-m48_5706",
        "sequence": 51,
        "isTimingPoint": false
      },
      {
        "id": "line-0103-inbound-stop-52",
        "directionId": "line-0103-inbound",
        "stopId": "stop-estadio-municipal-do-iperoba-m26_2185-m48_5723",
        "sequence": 52,
        "isTimingPoint": false
      },
      {
        "id": "line-0103-inbound-stop-53",
        "directionId": "line-0103-inbound",
        "stopId": "stop-esquina-rua-raul-vanine-m26_2198-m48_5740",
        "sequence": 53,
        "isTimingPoint": false
      },
      {
        "id": "line-0103-inbound-stop-54",
        "directionId": "line-0103-inbound",
        "stopId": "stop-posto-mediterraneo-bairro-centro-m26_2250-m48_5767",
        "sequence": 54,
        "isTimingPoint": false
      },
      {
        "id": "line-0103-inbound-stop-55",
        "directionId": "line-0103-inbound",
        "stopId": "stop-associacao-do-porto-sentido-bairro-centro-m26_2282-m48_5791",
        "sequence": 55,
        "isTimingPoint": false
      },
      {
        "id": "line-0103-inbound-stop-56",
        "directionId": "line-0103-inbound",
        "stopId": "stop-serraria-do-ingo-m26_2301-m48_5817",
        "sequence": 56,
        "isTimingPoint": false
      },
      {
        "id": "line-0103-inbound-stop-57",
        "directionId": "line-0103-inbound",
        "stopId": "stop-km-3-sentido-bairro-centro-m26_2339-m48_5870",
        "sequence": 57,
        "isTimingPoint": false
      },
      {
        "id": "line-0103-inbound-stop-58",
        "directionId": "line-0103-inbound",
        "stopId": "stop-porto-seco-rocha-sentido-bairro-centro-m26_2355-m48_5891",
        "sequence": 58,
        "isTimingPoint": false
      },
      {
        "id": "line-0103-inbound-stop-59",
        "directionId": "line-0103-inbound",
        "stopId": "stop-esquina-r-bem-vindo-alves-da-silva-m26_2389-m48_5937",
        "sequence": 59,
        "isTimingPoint": false
      },
      {
        "id": "line-0103-inbound-stop-60",
        "directionId": "line-0103-inbound",
        "stopId": "stop-em-franklin-de-oliveira-sentido-bairro-centro-m26_2445-m48_6014",
        "sequence": 60,
        "isTimingPoint": false
      },
      {
        "id": "line-0103-inbound-stop-61",
        "directionId": "line-0103-inbound",
        "stopId": "stop-panificadora-bom-dia-m26_2476-m48_6055",
        "sequence": 61,
        "isTimingPoint": false
      },
      {
        "id": "line-0103-inbound-stop-62",
        "directionId": "line-0103-inbound",
        "stopId": "stop-antigo-ldm-terminais-m26_2504-m48_6093",
        "sequence": 62,
        "isTimingPoint": false
      },
      {
        "id": "line-0103-inbound-stop-63",
        "directionId": "line-0103-inbound",
        "stopId": "stop-madeireira-regis-m26_2527-m48_6166",
        "sequence": 63,
        "isTimingPoint": false
      },
      {
        "id": "line-0103-inbound-stop-64",
        "directionId": "line-0103-inbound",
        "stopId": "stop-antigo-garcez-material-de-construcao-m26_2503-m48_6200",
        "sequence": 64,
        "isTimingPoint": false
      },
      {
        "id": "line-0103-inbound-stop-65",
        "directionId": "line-0103-inbound",
        "stopId": "stop-delta-veiculos-sentido-bairro-centro-m26_2494-m48_6212",
        "sequence": 65,
        "isTimingPoint": false
      },
      {
        "id": "line-0103-inbound-stop-66",
        "directionId": "line-0103-inbound",
        "stopId": "stop-almirante-barroso-8-m26_2476-m48_6213",
        "sequence": 66,
        "isTimingPoint": false
      },
      {
        "id": "line-0103-inbound-stop-67",
        "directionId": "line-0103-inbound",
        "stopId": "stop-material-de-construcao-avenida-m26_2449-m48_6220",
        "sequence": 67,
        "isTimingPoint": false
      },
      {
        "id": "line-0103-inbound-stop-68",
        "directionId": "line-0103-inbound",
        "stopId": "stop-eeb-victor-konder-sentido-bairro-centro-m26_2441-m48_6223",
        "sequence": 68,
        "isTimingPoint": false
      },
      {
        "id": "line-0103-inbound-stop-69",
        "directionId": "line-0103-inbound",
        "stopId": "stop-breis-contabilidade-m26_2432-m48_6250",
        "sequence": 69,
        "isTimingPoint": false
      },
      {
        "id": "line-0103-inbound-stop-70",
        "directionId": "line-0103-inbound",
        "stopId": "stop-cras-m26_2433-m48_6277",
        "sequence": 70,
        "isTimingPoint": false
      },
      {
        "id": "line-0103-inbound-stop-71",
        "directionId": "line-0103-inbound",
        "stopId": "stop-ines-zardo-sentido-centro-m26_2430-m48_6298",
        "sequence": 71,
        "isTimingPoint": false
      },
      {
        "id": "line-0103-inbound-stop-72",
        "directionId": "line-0103-inbound",
        "stopId": "stop-regencia-contabilidade-imoveis-m26_2455-m48_6330",
        "sequence": 72,
        "isTimingPoint": false
      },
      {
        "id": "line-0103-inbound-stop-73",
        "directionId": "line-0103-inbound",
        "stopId": "stop-carioca-bica-d-agua-m26_2466-m48_6355",
        "sequence": 73,
        "isTimingPoint": false
      },
      {
        "id": "line-0103-inbound-stop-74",
        "directionId": "line-0103-inbound",
        "stopId": "stop-colegio-adventista-m26_2478-m48_6373",
        "sequence": 74,
        "isTimingPoint": false
      },
      {
        "id": "line-0103-inbound-stop-75",
        "directionId": "line-0103-inbound",
        "stopId": "stop-restaurante-tom-brasil-m26_2492-m48_6384",
        "sequence": 75,
        "isTimingPoint": false
      },
      {
        "id": "line-0103-inbound-stop-76",
        "directionId": "line-0103-inbound",
        "stopId": "stop-rodoviaria-velha-m26_2492-m48_6356",
        "sequence": 76,
        "isTimingPoint": false
      },
      {
        "id": "line-0103-inbound-stop-77",
        "directionId": "line-0103-inbound",
        "stopId": "stop-millium-m26_2477-m48_6345",
        "sequence": 77,
        "isTimingPoint": false
      },
      {
        "id": "line-0103-inbound-stop-78",
        "directionId": "line-0103-inbound",
        "stopId": "stop-antiga-multipaper-sentido-bairro-centro-m26_2445-m48_6344",
        "sequence": 78,
        "isTimingPoint": false
      },
      {
        "id": "line-0103-inbound-stop-79",
        "directionId": "line-0103-inbound",
        "stopId": "stop-tapecar-m26_2426-m48_6353",
        "sequence": 79,
        "isTimingPoint": false
      },
      {
        "id": "line-0103-inbound-stop-80",
        "directionId": "line-0103-inbound",
        "stopId": "stop-posto-rod-oil-m26_2420-m48_6373",
        "sequence": 80,
        "isTimingPoint": false
      },
      {
        "id": "line-0103-inbound-stop-81",
        "directionId": "line-0103-inbound",
        "stopId": "stop-praca-dr-getulio-vargas-5-m26_2434-m48_6379",
        "sequence": 81,
        "isTimingPoint": true
      }
    ],
    "schedules": [
      {
        "id": "collected-line-0103-outbound-weekday-0700",
        "directionId": "line-0103-outbound",
        "serviceDay": "weekday",
        "departureTime": "07:00",
        "departureMinutes": 420,
        "isPeak": true,
        "occupancy": "medium"
      },
      {
        "id": "collected-line-0103-outbound-weekday-1130",
        "directionId": "line-0103-outbound",
        "serviceDay": "weekday",
        "departureTime": "11:30",
        "departureMinutes": 690,
        "isPeak": false,
        "occupancy": "medium"
      },
      {
        "id": "collected-line-0103-outbound-weekday-1650",
        "directionId": "line-0103-outbound",
        "serviceDay": "weekday",
        "departureTime": "16:50",
        "departureMinutes": 1010,
        "isPeak": false,
        "occupancy": "medium"
      },
      {
        "id": "collected-line-0103-inbound-weekday-1130",
        "directionId": "line-0103-inbound",
        "serviceDay": "weekday",
        "departureTime": "11:30",
        "departureMinutes": 690,
        "isPeak": false,
        "occupancy": "medium"
      },
      {
        "id": "collected-line-0103-inbound-weekday-1810",
        "directionId": "line-0103-inbound",
        "serviceDay": "weekday",
        "departureTime": "18:10",
        "departureMinutes": 1090,
        "isPeak": true,
        "occupancy": "medium"
      },
      {
        "id": "collected-line-0103-inbound-weekday-2015",
        "directionId": "line-0103-inbound",
        "serviceDay": "weekday",
        "departureTime": "20:15",
        "departureMinutes": 1215,
        "isPeak": false,
        "occupancy": "medium"
      },
      {
        "id": "collected-line-0103-inbound-weekday-2215",
        "directionId": "line-0103-inbound",
        "serviceDay": "weekday",
        "departureTime": "22:15",
        "departureMinutes": 1335,
        "isPeak": false,
        "occupancy": "medium"
      }
    ],
    "stopTimePredictions": [],
    "routePaths": [
      {
        "id": "line-0103-outbound-path-1",
        "directionId": "line-0103-outbound",
        "sequence": 1,
        "latitude": -26.24342,
        "longitude": -48.63788
      },
      {
        "id": "line-0103-outbound-path-2",
        "directionId": "line-0103-outbound",
        "sequence": 2,
        "latitude": -26.24352,
        "longitude": -48.63783
      },
      {
        "id": "line-0103-outbound-path-3",
        "directionId": "line-0103-outbound",
        "sequence": 3,
        "latitude": -26.24331,
        "longitude": -48.63742
      },
      {
        "id": "line-0103-outbound-path-4",
        "directionId": "line-0103-outbound",
        "sequence": 4,
        "latitude": -26.24315,
        "longitude": -48.63715
      },
      {
        "id": "line-0103-outbound-path-5",
        "directionId": "line-0103-outbound",
        "sequence": 5,
        "latitude": -26.2424,
        "longitude": -48.63635
      },
      {
        "id": "line-0103-outbound-path-6",
        "directionId": "line-0103-outbound",
        "sequence": 6,
        "latitude": -26.24232,
        "longitude": -48.63623
      },
      {
        "id": "line-0103-outbound-path-7",
        "directionId": "line-0103-outbound",
        "sequence": 7,
        "latitude": -26.24225,
        "longitude": -48.63609
      },
      {
        "id": "line-0103-outbound-path-8",
        "directionId": "line-0103-outbound",
        "sequence": 8,
        "latitude": -26.24219,
        "longitude": -48.63594
      },
      {
        "id": "line-0103-outbound-path-9",
        "directionId": "line-0103-outbound",
        "sequence": 9,
        "latitude": -26.24213,
        "longitude": -48.63566
      },
      {
        "id": "line-0103-outbound-path-10",
        "directionId": "line-0103-outbound",
        "sequence": 10,
        "latitude": -26.24348,
        "longitude": -48.63507
      },
      {
        "id": "line-0103-outbound-path-11",
        "directionId": "line-0103-outbound",
        "sequence": 11,
        "latitude": -26.24466,
        "longitude": -48.63455
      },
      {
        "id": "line-0103-outbound-path-12",
        "directionId": "line-0103-outbound",
        "sequence": 12,
        "latitude": -26.24501,
        "longitude": -48.6344
      },
      {
        "id": "line-0103-outbound-path-13",
        "directionId": "line-0103-outbound",
        "sequence": 13,
        "latitude": -26.24559,
        "longitude": -48.63418
      },
      {
        "id": "line-0103-outbound-path-14",
        "directionId": "line-0103-outbound",
        "sequence": 14,
        "latitude": -26.24567,
        "longitude": -48.63419
      },
      {
        "id": "line-0103-outbound-path-15",
        "directionId": "line-0103-outbound",
        "sequence": 15,
        "latitude": -26.24583,
        "longitude": -48.63427
      },
      {
        "id": "line-0103-outbound-path-16",
        "directionId": "line-0103-outbound",
        "sequence": 16,
        "latitude": -26.24593,
        "longitude": -48.63435
      },
      {
        "id": "line-0103-outbound-path-17",
        "directionId": "line-0103-outbound",
        "sequence": 17,
        "latitude": -26.24601,
        "longitude": -48.63445
      },
      {
        "id": "line-0103-outbound-path-18",
        "directionId": "line-0103-outbound",
        "sequence": 18,
        "latitude": -26.24647,
        "longitude": -48.63507
      },
      {
        "id": "line-0103-outbound-path-19",
        "directionId": "line-0103-outbound",
        "sequence": 19,
        "latitude": -26.2467,
        "longitude": -48.6354
      },
      {
        "id": "line-0103-outbound-path-20",
        "directionId": "line-0103-outbound",
        "sequence": 20,
        "latitude": -26.24797,
        "longitude": -48.63721
      },
      {
        "id": "line-0103-outbound-path-21",
        "directionId": "line-0103-outbound",
        "sequence": 21,
        "latitude": -26.24819,
        "longitude": -48.63752
      },
      {
        "id": "line-0103-outbound-path-22",
        "directionId": "line-0103-outbound",
        "sequence": 22,
        "latitude": -26.2483,
        "longitude": -48.63768
      },
      {
        "id": "line-0103-outbound-path-23",
        "directionId": "line-0103-outbound",
        "sequence": 23,
        "latitude": -26.24858,
        "longitude": -48.63819
      },
      {
        "id": "line-0103-outbound-path-24",
        "directionId": "line-0103-outbound",
        "sequence": 24,
        "latitude": -26.24899,
        "longitude": -48.63895
      },
      {
        "id": "line-0103-outbound-path-25",
        "directionId": "line-0103-outbound",
        "sequence": 25,
        "latitude": -26.24931,
        "longitude": -48.63845
      },
      {
        "id": "line-0103-outbound-path-26",
        "directionId": "line-0103-outbound",
        "sequence": 26,
        "latitude": -26.24944,
        "longitude": -48.63825
      },
      {
        "id": "line-0103-outbound-path-27",
        "directionId": "line-0103-outbound",
        "sequence": 27,
        "latitude": -26.24983,
        "longitude": -48.63762
      },
      {
        "id": "line-0103-outbound-path-28",
        "directionId": "line-0103-outbound",
        "sequence": 28,
        "latitude": -26.25024,
        "longitude": -48.63698
      },
      {
        "id": "line-0103-outbound-path-29",
        "directionId": "line-0103-outbound",
        "sequence": 29,
        "latitude": -26.25048,
        "longitude": -48.63658
      },
      {
        "id": "line-0103-outbound-path-30",
        "directionId": "line-0103-outbound",
        "sequence": 30,
        "latitude": -26.25049,
        "longitude": -48.63648
      },
      {
        "id": "line-0103-outbound-path-31",
        "directionId": "line-0103-outbound",
        "sequence": 31,
        "latitude": -26.24924,
        "longitude": -48.63558
      },
      {
        "id": "line-0103-outbound-path-32",
        "directionId": "line-0103-outbound",
        "sequence": 32,
        "latitude": -26.24916,
        "longitude": -48.63552
      },
      {
        "id": "line-0103-outbound-path-33",
        "directionId": "line-0103-outbound",
        "sequence": 33,
        "latitude": -26.24843,
        "longitude": -48.635
      },
      {
        "id": "line-0103-outbound-path-34",
        "directionId": "line-0103-outbound",
        "sequence": 34,
        "latitude": -26.24823,
        "longitude": -48.63485
      },
      {
        "id": "line-0103-outbound-path-35",
        "directionId": "line-0103-outbound",
        "sequence": 35,
        "latitude": -26.2479,
        "longitude": -48.63461
      },
      {
        "id": "line-0103-outbound-path-36",
        "directionId": "line-0103-outbound",
        "sequence": 36,
        "latitude": -26.24775,
        "longitude": -48.63451
      },
      {
        "id": "line-0103-outbound-path-37",
        "directionId": "line-0103-outbound",
        "sequence": 37,
        "latitude": -26.24757,
        "longitude": -48.63438
      },
      {
        "id": "line-0103-outbound-path-38",
        "directionId": "line-0103-outbound",
        "sequence": 38,
        "latitude": -26.2461,
        "longitude": -48.63332
      },
      {
        "id": "line-0103-outbound-path-39",
        "directionId": "line-0103-outbound",
        "sequence": 39,
        "latitude": -26.24541,
        "longitude": -48.63283
      },
      {
        "id": "line-0103-outbound-path-40",
        "directionId": "line-0103-outbound",
        "sequence": 40,
        "latitude": -26.24515,
        "longitude": -48.63265
      },
      {
        "id": "line-0103-outbound-path-41",
        "directionId": "line-0103-outbound",
        "sequence": 41,
        "latitude": -26.24486,
        "longitude": -48.63245
      },
      {
        "id": "line-0103-outbound-path-42",
        "directionId": "line-0103-outbound",
        "sequence": 42,
        "latitude": -26.24557,
        "longitude": -48.63092
      },
      {
        "id": "line-0103-outbound-path-43",
        "directionId": "line-0103-outbound",
        "sequence": 43,
        "latitude": -26.24629,
        "longitude": -48.62932
      },
      {
        "id": "line-0103-outbound-path-44",
        "directionId": "line-0103-outbound",
        "sequence": 44,
        "latitude": -26.24677,
        "longitude": -48.62826
      },
      {
        "id": "line-0103-outbound-path-45",
        "directionId": "line-0103-outbound",
        "sequence": 45,
        "latitude": -26.24715,
        "longitude": -48.62744
      },
      {
        "id": "line-0103-outbound-path-46",
        "directionId": "line-0103-outbound",
        "sequence": 46,
        "latitude": -26.24839,
        "longitude": -48.62479
      },
      {
        "id": "line-0103-outbound-path-47",
        "directionId": "line-0103-outbound",
        "sequence": 47,
        "latitude": -26.24918,
        "longitude": -48.62306
      },
      {
        "id": "line-0103-outbound-path-48",
        "directionId": "line-0103-outbound",
        "sequence": 48,
        "latitude": -26.24958,
        "longitude": -48.62218
      },
      {
        "id": "line-0103-outbound-path-49",
        "directionId": "line-0103-outbound",
        "sequence": 49,
        "latitude": -26.24979,
        "longitude": -48.6219
      },
      {
        "id": "line-0103-outbound-path-50",
        "directionId": "line-0103-outbound",
        "sequence": 50,
        "latitude": -26.25015,
        "longitude": -48.62129
      },
      {
        "id": "line-0103-outbound-path-51",
        "directionId": "line-0103-outbound",
        "sequence": 51,
        "latitude": -26.25041,
        "longitude": -48.62075
      },
      {
        "id": "line-0103-outbound-path-52",
        "directionId": "line-0103-outbound",
        "sequence": 52,
        "latitude": -26.25052,
        "longitude": -48.62035
      },
      {
        "id": "line-0103-outbound-path-53",
        "directionId": "line-0103-outbound",
        "sequence": 53,
        "latitude": -26.25071,
        "longitude": -48.61964
      },
      {
        "id": "line-0103-outbound-path-54",
        "directionId": "line-0103-outbound",
        "sequence": 54,
        "latitude": -26.25088,
        "longitude": -48.6193
      },
      {
        "id": "line-0103-outbound-path-55",
        "directionId": "line-0103-outbound",
        "sequence": 55,
        "latitude": -26.25095,
        "longitude": -48.61918
      },
      {
        "id": "line-0103-outbound-path-56",
        "directionId": "line-0103-outbound",
        "sequence": 56,
        "latitude": -26.25126,
        "longitude": -48.61879
      },
      {
        "id": "line-0103-outbound-path-57",
        "directionId": "line-0103-outbound",
        "sequence": 57,
        "latitude": -26.25127,
        "longitude": -48.61878
      },
      {
        "id": "line-0103-outbound-path-58",
        "directionId": "line-0103-outbound",
        "sequence": 58,
        "latitude": -26.25141,
        "longitude": -48.61855
      },
      {
        "id": "line-0103-outbound-path-59",
        "directionId": "line-0103-outbound",
        "sequence": 59,
        "latitude": -26.25155,
        "longitude": -48.61837
      },
      {
        "id": "line-0103-outbound-path-60",
        "directionId": "line-0103-outbound",
        "sequence": 60,
        "latitude": -26.25173,
        "longitude": -48.61821
      },
      {
        "id": "line-0103-outbound-path-61",
        "directionId": "line-0103-outbound",
        "sequence": 61,
        "latitude": -26.2519,
        "longitude": -48.61809
      },
      {
        "id": "line-0103-outbound-path-62",
        "directionId": "line-0103-outbound",
        "sequence": 62,
        "latitude": -26.25197,
        "longitude": -48.61807
      },
      {
        "id": "line-0103-outbound-path-63",
        "directionId": "line-0103-outbound",
        "sequence": 63,
        "latitude": -26.25202,
        "longitude": -48.61803
      },
      {
        "id": "line-0103-outbound-path-64",
        "directionId": "line-0103-outbound",
        "sequence": 64,
        "latitude": -26.25206,
        "longitude": -48.61797
      },
      {
        "id": "line-0103-outbound-path-65",
        "directionId": "line-0103-outbound",
        "sequence": 65,
        "latitude": -26.25208,
        "longitude": -48.6179
      },
      {
        "id": "line-0103-outbound-path-66",
        "directionId": "line-0103-outbound",
        "sequence": 66,
        "latitude": -26.25209,
        "longitude": -48.61783
      },
      {
        "id": "line-0103-outbound-path-67",
        "directionId": "line-0103-outbound",
        "sequence": 67,
        "latitude": -26.25214,
        "longitude": -48.61762
      },
      {
        "id": "line-0103-outbound-path-68",
        "directionId": "line-0103-outbound",
        "sequence": 68,
        "latitude": -26.25225,
        "longitude": -48.61734
      },
      {
        "id": "line-0103-outbound-path-69",
        "directionId": "line-0103-outbound",
        "sequence": 69,
        "latitude": -26.25242,
        "longitude": -48.61711
      },
      {
        "id": "line-0103-outbound-path-70",
        "directionId": "line-0103-outbound",
        "sequence": 70,
        "latitude": -26.25255,
        "longitude": -48.61694
      },
      {
        "id": "line-0103-outbound-path-71",
        "directionId": "line-0103-outbound",
        "sequence": 71,
        "latitude": -26.25264,
        "longitude": -48.61681
      },
      {
        "id": "line-0103-outbound-path-72",
        "directionId": "line-0103-outbound",
        "sequence": 72,
        "latitude": -26.25288,
        "longitude": -48.61646
      },
      {
        "id": "line-0103-outbound-path-73",
        "directionId": "line-0103-outbound",
        "sequence": 73,
        "latitude": -26.25301,
        "longitude": -48.61625
      },
      {
        "id": "line-0103-outbound-path-74",
        "directionId": "line-0103-outbound",
        "sequence": 74,
        "latitude": -26.25316,
        "longitude": -48.61591
      },
      {
        "id": "line-0103-outbound-path-75",
        "directionId": "line-0103-outbound",
        "sequence": 75,
        "latitude": -26.25322,
        "longitude": -48.61572
      },
      {
        "id": "line-0103-outbound-path-76",
        "directionId": "line-0103-outbound",
        "sequence": 76,
        "latitude": -26.2533,
        "longitude": -48.61542
      },
      {
        "id": "line-0103-outbound-path-77",
        "directionId": "line-0103-outbound",
        "sequence": 77,
        "latitude": -26.25332,
        "longitude": -48.61532
      },
      {
        "id": "line-0103-outbound-path-78",
        "directionId": "line-0103-outbound",
        "sequence": 78,
        "latitude": -26.25341,
        "longitude": -48.61489
      },
      {
        "id": "line-0103-outbound-path-79",
        "directionId": "line-0103-outbound",
        "sequence": 79,
        "latitude": -26.25347,
        "longitude": -48.6145
      },
      {
        "id": "line-0103-outbound-path-80",
        "directionId": "line-0103-outbound",
        "sequence": 80,
        "latitude": -26.25349,
        "longitude": -48.61429
      },
      {
        "id": "line-0103-outbound-path-81",
        "directionId": "line-0103-outbound",
        "sequence": 81,
        "latitude": -26.25349,
        "longitude": -48.61417
      },
      {
        "id": "line-0103-outbound-path-82",
        "directionId": "line-0103-outbound",
        "sequence": 82,
        "latitude": -26.25349,
        "longitude": -48.61401
      },
      {
        "id": "line-0103-outbound-path-83",
        "directionId": "line-0103-outbound",
        "sequence": 83,
        "latitude": -26.25347,
        "longitude": -48.61369
      },
      {
        "id": "line-0103-outbound-path-84",
        "directionId": "line-0103-outbound",
        "sequence": 84,
        "latitude": -26.25344,
        "longitude": -48.61311
      },
      {
        "id": "line-0103-outbound-path-85",
        "directionId": "line-0103-outbound",
        "sequence": 85,
        "latitude": -26.25336,
        "longitude": -48.61283
      },
      {
        "id": "line-0103-outbound-path-86",
        "directionId": "line-0103-outbound",
        "sequence": 86,
        "latitude": -26.25328,
        "longitude": -48.61265
      },
      {
        "id": "line-0103-outbound-path-87",
        "directionId": "line-0103-outbound",
        "sequence": 87,
        "latitude": -26.25313,
        "longitude": -48.61237
      },
      {
        "id": "line-0103-outbound-path-88",
        "directionId": "line-0103-outbound",
        "sequence": 88,
        "latitude": -26.25284,
        "longitude": -48.61192
      },
      {
        "id": "line-0103-outbound-path-89",
        "directionId": "line-0103-outbound",
        "sequence": 89,
        "latitude": -26.25258,
        "longitude": -48.6116
      },
      {
        "id": "line-0103-outbound-path-90",
        "directionId": "line-0103-outbound",
        "sequence": 90,
        "latitude": -26.25151,
        "longitude": -48.61034
      },
      {
        "id": "line-0103-outbound-path-91",
        "directionId": "line-0103-outbound",
        "sequence": 91,
        "latitude": -26.25138,
        "longitude": -48.61019
      },
      {
        "id": "line-0103-outbound-path-92",
        "directionId": "line-0103-outbound",
        "sequence": 92,
        "latitude": -26.25125,
        "longitude": -48.61004
      },
      {
        "id": "line-0103-outbound-path-93",
        "directionId": "line-0103-outbound",
        "sequence": 93,
        "latitude": -26.25116,
        "longitude": -48.60996
      },
      {
        "id": "line-0103-outbound-path-94",
        "directionId": "line-0103-outbound",
        "sequence": 94,
        "latitude": -26.25075,
        "longitude": -48.60972
      },
      {
        "id": "line-0103-outbound-path-95",
        "directionId": "line-0103-outbound",
        "sequence": 95,
        "latitude": -26.25063,
        "longitude": -48.60955
      },
      {
        "id": "line-0103-outbound-path-96",
        "directionId": "line-0103-outbound",
        "sequence": 96,
        "latitude": -26.2504,
        "longitude": -48.60923
      },
      {
        "id": "line-0103-outbound-path-97",
        "directionId": "line-0103-outbound",
        "sequence": 97,
        "latitude": -26.25015,
        "longitude": -48.6089
      },
      {
        "id": "line-0103-outbound-path-98",
        "directionId": "line-0103-outbound",
        "sequence": 98,
        "latitude": -26.25001,
        "longitude": -48.6087
      },
      {
        "id": "line-0103-outbound-path-99",
        "directionId": "line-0103-outbound",
        "sequence": 99,
        "latitude": -26.24986,
        "longitude": -48.6085
      },
      {
        "id": "line-0103-outbound-path-100",
        "directionId": "line-0103-outbound",
        "sequence": 100,
        "latitude": -26.24965,
        "longitude": -48.60821
      },
      {
        "id": "line-0103-outbound-path-101",
        "directionId": "line-0103-outbound",
        "sequence": 101,
        "latitude": -26.24922,
        "longitude": -48.60763
      },
      {
        "id": "line-0103-outbound-path-102",
        "directionId": "line-0103-outbound",
        "sequence": 102,
        "latitude": -26.24895,
        "longitude": -48.60726
      },
      {
        "id": "line-0103-outbound-path-103",
        "directionId": "line-0103-outbound",
        "sequence": 103,
        "latitude": -26.24866,
        "longitude": -48.60687
      },
      {
        "id": "line-0103-outbound-path-104",
        "directionId": "line-0103-outbound",
        "sequence": 104,
        "latitude": -26.24844,
        "longitude": -48.60657
      },
      {
        "id": "line-0103-outbound-path-105",
        "directionId": "line-0103-outbound",
        "sequence": 105,
        "latitude": -26.24772,
        "longitude": -48.60558
      },
      {
        "id": "line-0103-outbound-path-106",
        "directionId": "line-0103-outbound",
        "sequence": 106,
        "latitude": -26.24767,
        "longitude": -48.60552
      },
      {
        "id": "line-0103-outbound-path-107",
        "directionId": "line-0103-outbound",
        "sequence": 107,
        "latitude": -26.24762,
        "longitude": -48.60545
      },
      {
        "id": "line-0103-outbound-path-108",
        "directionId": "line-0103-outbound",
        "sequence": 108,
        "latitude": -26.24713,
        "longitude": -48.60479
      },
      {
        "id": "line-0103-outbound-path-109",
        "directionId": "line-0103-outbound",
        "sequence": 109,
        "latitude": -26.24695,
        "longitude": -48.60455
      },
      {
        "id": "line-0103-outbound-path-110",
        "directionId": "line-0103-outbound",
        "sequence": 110,
        "latitude": -26.24599,
        "longitude": -48.60324
      },
      {
        "id": "line-0103-outbound-path-111",
        "directionId": "line-0103-outbound",
        "sequence": 111,
        "latitude": -26.24552,
        "longitude": -48.60259
      },
      {
        "id": "line-0103-outbound-path-112",
        "directionId": "line-0103-outbound",
        "sequence": 112,
        "latitude": -26.24527,
        "longitude": -48.60225
      },
      {
        "id": "line-0103-outbound-path-113",
        "directionId": "line-0103-outbound",
        "sequence": 113,
        "latitude": -26.24489,
        "longitude": -48.60174
      },
      {
        "id": "line-0103-outbound-path-114",
        "directionId": "line-0103-outbound",
        "sequence": 114,
        "latitude": -26.24459,
        "longitude": -48.60133
      },
      {
        "id": "line-0103-outbound-path-115",
        "directionId": "line-0103-outbound",
        "sequence": 115,
        "latitude": -26.24451,
        "longitude": -48.60122
      },
      {
        "id": "line-0103-outbound-path-116",
        "directionId": "line-0103-outbound",
        "sequence": 116,
        "latitude": -26.24438,
        "longitude": -48.60105
      },
      {
        "id": "line-0103-outbound-path-117",
        "directionId": "line-0103-outbound",
        "sequence": 117,
        "latitude": -26.24413,
        "longitude": -48.6007
      },
      {
        "id": "line-0103-outbound-path-118",
        "directionId": "line-0103-outbound",
        "sequence": 118,
        "latitude": -26.24367,
        "longitude": -48.60008
      },
      {
        "id": "line-0103-outbound-path-119",
        "directionId": "line-0103-outbound",
        "sequence": 119,
        "latitude": -26.24223,
        "longitude": -48.59812
      },
      {
        "id": "line-0103-outbound-path-120",
        "directionId": "line-0103-outbound",
        "sequence": 120,
        "latitude": -26.24214,
        "longitude": -48.59801
      },
      {
        "id": "line-0103-outbound-path-121",
        "directionId": "line-0103-outbound",
        "sequence": 121,
        "latitude": -26.24002,
        "longitude": -48.59512
      },
      {
        "id": "line-0103-outbound-path-122",
        "directionId": "line-0103-outbound",
        "sequence": 122,
        "latitude": -26.23932,
        "longitude": -48.59417
      },
      {
        "id": "line-0103-outbound-path-123",
        "directionId": "line-0103-outbound",
        "sequence": 123,
        "latitude": -26.23901,
        "longitude": -48.59374
      },
      {
        "id": "line-0103-outbound-path-124",
        "directionId": "line-0103-outbound",
        "sequence": 124,
        "latitude": -26.23883,
        "longitude": -48.5935
      },
      {
        "id": "line-0103-outbound-path-125",
        "directionId": "line-0103-outbound",
        "sequence": 125,
        "latitude": -26.23863,
        "longitude": -48.59322
      },
      {
        "id": "line-0103-outbound-path-126",
        "directionId": "line-0103-outbound",
        "sequence": 126,
        "latitude": -26.23574,
        "longitude": -48.58929
      },
      {
        "id": "line-0103-outbound-path-127",
        "directionId": "line-0103-outbound",
        "sequence": 127,
        "latitude": -26.23531,
        "longitude": -48.58871
      },
      {
        "id": "line-0103-outbound-path-128",
        "directionId": "line-0103-outbound",
        "sequence": 128,
        "latitude": -26.2347,
        "longitude": -48.58788
      },
      {
        "id": "line-0103-outbound-path-129",
        "directionId": "line-0103-outbound",
        "sequence": 129,
        "latitude": -26.23456,
        "longitude": -48.58769
      },
      {
        "id": "line-0103-outbound-path-130",
        "directionId": "line-0103-outbound",
        "sequence": 130,
        "latitude": -26.23446,
        "longitude": -48.58756
      },
      {
        "id": "line-0103-outbound-path-131",
        "directionId": "line-0103-outbound",
        "sequence": 131,
        "latitude": -26.23405,
        "longitude": -48.58699
      },
      {
        "id": "line-0103-outbound-path-132",
        "directionId": "line-0103-outbound",
        "sequence": 132,
        "latitude": -26.23397,
        "longitude": -48.58689
      },
      {
        "id": "line-0103-outbound-path-133",
        "directionId": "line-0103-outbound",
        "sequence": 133,
        "latitude": -26.23378,
        "longitude": -48.58662
      },
      {
        "id": "line-0103-outbound-path-134",
        "directionId": "line-0103-outbound",
        "sequence": 134,
        "latitude": -26.23372,
        "longitude": -48.58655
      },
      {
        "id": "line-0103-outbound-path-135",
        "directionId": "line-0103-outbound",
        "sequence": 135,
        "latitude": -26.23304,
        "longitude": -48.58561
      },
      {
        "id": "line-0103-outbound-path-136",
        "directionId": "line-0103-outbound",
        "sequence": 136,
        "latitude": -26.23285,
        "longitude": -48.58536
      },
      {
        "id": "line-0103-outbound-path-137",
        "directionId": "line-0103-outbound",
        "sequence": 137,
        "latitude": -26.23221,
        "longitude": -48.58449
      },
      {
        "id": "line-0103-outbound-path-138",
        "directionId": "line-0103-outbound",
        "sequence": 138,
        "latitude": -26.23152,
        "longitude": -48.58354
      },
      {
        "id": "line-0103-outbound-path-139",
        "directionId": "line-0103-outbound",
        "sequence": 139,
        "latitude": -26.23143,
        "longitude": -48.58342
      },
      {
        "id": "line-0103-outbound-path-140",
        "directionId": "line-0103-outbound",
        "sequence": 140,
        "latitude": -26.23101,
        "longitude": -48.58284
      },
      {
        "id": "line-0103-outbound-path-141",
        "directionId": "line-0103-outbound",
        "sequence": 141,
        "latitude": -26.23085,
        "longitude": -48.58263
      },
      {
        "id": "line-0103-outbound-path-142",
        "directionId": "line-0103-outbound",
        "sequence": 142,
        "latitude": -26.23062,
        "longitude": -48.58231
      },
      {
        "id": "line-0103-outbound-path-143",
        "directionId": "line-0103-outbound",
        "sequence": 143,
        "latitude": -26.23028,
        "longitude": -48.58184
      },
      {
        "id": "line-0103-outbound-path-144",
        "directionId": "line-0103-outbound",
        "sequence": 144,
        "latitude": -26.23009,
        "longitude": -48.58158
      },
      {
        "id": "line-0103-outbound-path-145",
        "directionId": "line-0103-outbound",
        "sequence": 145,
        "latitude": -26.23010662484238,
        "longitude": -48.58156423194107
      },
      {
        "id": "line-0103-outbound-path-146",
        "directionId": "line-0103-outbound",
        "sequence": 146,
        "latitude": -26.228341720217372,
        "longitude": -48.579116629838914
      },
      {
        "id": "line-0103-outbound-path-147",
        "directionId": "line-0103-outbound",
        "sequence": 147,
        "latitude": -26.225063901907514,
        "longitude": -48.57663070547908
      },
      {
        "id": "line-0103-outbound-path-148",
        "directionId": "line-0103-outbound",
        "sequence": 148,
        "latitude": -26.220120350734142,
        "longitude": -48.57404903955047
      },
      {
        "id": "line-0103-outbound-path-149",
        "directionId": "line-0103-outbound",
        "sequence": 149,
        "latitude": -26.218306317713612,
        "longitude": -48.57186603731601
      },
      {
        "id": "line-0103-outbound-path-150",
        "directionId": "line-0103-outbound",
        "sequence": 150,
        "latitude": -26.217178784558783,
        "longitude": -48.5703807857199
      },
      {
        "id": "line-0103-outbound-path-151",
        "directionId": "line-0103-outbound",
        "sequence": 151,
        "latitude": -26.215470858755566,
        "longitude": -48.56774623787437
      },
      {
        "id": "line-0103-outbound-path-152",
        "directionId": "line-0103-outbound",
        "sequence": 152,
        "latitude": -26.21448188915687,
        "longitude": -48.56359941296332
      },
      {
        "id": "line-0103-outbound-path-153",
        "directionId": "line-0103-outbound",
        "sequence": 153,
        "latitude": -26.213124773000214,
        "longitude": -48.55826110811527
      },
      {
        "id": "line-0103-outbound-path-154",
        "directionId": "line-0103-outbound",
        "sequence": 154,
        "latitude": -26.20879120798978,
        "longitude": -48.544997895494866
      },
      {
        "id": "line-0103-outbound-path-155",
        "directionId": "line-0103-outbound",
        "sequence": 155,
        "latitude": -26.20707248293841,
        "longitude": -48.540736957872326
      },