{
  "manifestVersion": "1.0",
  "citySlug": "sao-francisco-do-sul",
  "providerSlug": "verdes-mares",
  "entityType": "line",
  "data": {
    "id": "collected-line-0109",
    "code": "0109",
    "slug": "0109-enseada-via-praia-grande-forte",
    "name": "Enseada via Praia Grande/Forte",
    "operator": "Verdes Mares",
    "mode": "urban",
    "summary": "Linha Centro - Enseada via Praia Grande/Forte",
    "routeLabel": "Centro -> Enseada",
    "originLabel": "Centro",
    "destinationLabel": "Enseada",
    "fares": [
      {
        "id": "collected-line-0109-fare-1",
        "label": "Tarifa urbana municipal",
        "appliesTo": "line",
        "source": {
          "sourceId": "verdes-mares-sfs",
          "sourceName": "Verdes Mares Sao Francisco do Sul",
          "sourceUrl": "https://vmares.com.br/sao-francisco-do-sul/",
          "collectedAt": "2026-04-16T12:00:00.000Z",
          "collectionMethod": "manual",
          "sourceLineRef": "0109"
        }
      }
    ],
    "directions": [
      {
        "id": "collected-line-0109-outbound",
        "type": "outbound",
        "name": "Saída do Centro",
        "routeLabel": "Centro -> Enseada",
        "originLabel": "Centro",
        "destinationLabel": "Enseada",
        "mapPath": [
          {
            "sequence": 1,
            "lat": -26.243437512602945,
            "lng": -48.637910711972246
          },
          {
            "sequence": 2,
            "lat": -26.24347278215267,
            "lng": -48.635064229915336
          },
          {
            "sequence": 3,
            "lat": -26.244699006604957,
            "lng": -48.63466469668285
          },
          {
            "sequence": 4,
            "lat": -26.24659710935892,
            "lng": -48.63549497664863
          },
          {
            "sequence": 5,
            "lat": -26.247834789940356,
            "lng": -48.63733216779835
          },
          {
            "sequence": 6,
            "lat": -26.249248390210585,
            "lng": -48.63840582899403
          },
          {
            "sequence": 7,
            "lat": -26.249224290355095,
            "lng": -48.63560230865354
          },
          {
            "sequence": 8,
            "lat": -26.24773780113116,
            "lng": -48.634526537853745
          },
          {
            "sequence": 9,
            "lat": -26.24515882173163,
            "lng": -48.632634968370155
          },
          {
            "sequence": 10,
            "lat": -26.246340804596205,
            "lng": -48.629343796815185
          },
          {
            "sequence": 11,
            "lat": -26.24719855818423,
            "lng": -48.627462845459284
          },
          {
            "sequence": 12,
            "lat": -26.249219862252595,
            "lng": -48.62307844858382
          },
          {
            "sequence": 13,
            "lat": -26.25129673331392,
            "lng": -48.61880208945875
          },
          {
            "sequence": 14,
            "lat": -26.252586180491125,
            "lng": -48.61696827912255
          },
          {
            "sequence": 15,
            "lat": -26.25350335302604,
            "lng": -48.61416680995571
          },
          {
            "sequence": 16,
            "lat": -26.2502089362594,
            "lng": -48.60884798948869
          },
          {
            "sequence": 17,
            "lat": -26.247697801414972,
            "lng": -48.60548822716956
          },
          {
            "sequence": 18,
            "lat": -26.244593896062582,
            "lng": -48.601328070731256
          },
          {
            "sequence": 19,
            "lat": -26.238657459849893,
            "lng": -48.59319657509188
          },
          {
            "sequence": 20,
            "lat": -26.23577626467118,
            "lng": -48.589257238770365
          },
          {
            "sequence": 21,
            "lat": -26.233972591742404,
            "lng": -48.5868932472597
          },
          {
            "sequence": 22,
            "lat": -26.23047654858731,
            "lng": -48.58233903078628
          },
          {
            "sequence": 23,
            "lat": -26.228341720217372,
            "lng": -48.579116629838914
          },
          {
            "sequence": 24,
            "lat": -26.225063901907514,
            "lng": -48.57663070547908
          },
          {
            "sequence": 25,
            "lat": -26.220120350734142,
            "lng": -48.57404903955047
          },
          {
            "sequence": 26,
            "lat": -26.218306317713612,
            "lng": -48.57186603731601
          },
          {
            "sequence": 27,
            "lat": -26.217178784558783,
            "lng": -48.5703807857199
          },
          {
            "sequence": 28,
            "lat": -26.215470858755566,
            "lng": -48.56774623787437
          },
          {
            "sequence": 29,
            "lat": -26.21448188915687,
            "lng": -48.56359941296332
          },
          {
            "sequence": 30,
            "lat": -26.213124773000214,
            "lng": -48.55826110811527
          },
          {
            "sequence": 31,
            "lat": -26.20879120798978,
            "lng": -48.544997895494866
          },
          {
            "sequence": 32,
            "lat": -26.20707248293841,
            "lng": -48.540736957872326
          },
          {
            "sequence": 33,
            "lat": -26.202860516163796,
            "lng": -48.53697643723416
          },
          {
            "sequence": 34,
            "lat": -26.20112475028817,
            "lng": -48.53579338494922
          },
          {
            "sequence": 35,
            "lat": -26.19846838452366,
            "lng": -48.53290716453095
          },
          {
            "sequence": 36,
            "lat": -26.193119216990677,
            "lng": -48.53090170484589
          },
          {
            "sequence": 37,
            "lat": -26.188916766213776,
            "lng": -48.53361700327354
          },
          {
            "sequence": 38,
            "lat": -26.186540711160877,
            "lng": -48.53409731180496
          },
          {
            "sequence": 39,
            "lat": -26.184935318684133,
            "lng": -48.534467259516056
          },
          {
            "sequence": 40,
            "lat": -26.1839591895995,
            "lng": -48.53401448771022
          },
          {
            "sequence": 41,
            "lat": -26.181932580788043,
            "lng": -48.53379362342522
          },
          {
            "sequence": 42,
            "lat": -26.18007441215611,
            "lng": -48.53397031485724
          },
          {
            "sequence": 43,
            "lat": -26.178543258912637,
            "lng": -48.53401448772447
          },
          {
            "sequence": 44,
            "lat": -26.17719047574594,
            "lng": -48.53308133608954
          },
          {
            "sequence": 45,
            "lat": -26.17398170061045,
            "lng": -48.533335681696926
          },
          {
            "sequence": 46,
            "lat": -26.172762662175412,
            "lng": -48.53447313279473
          },
          {
            "sequence": 47,
            "lat": -26.168114753304362,
            "lng": -48.53456075459785
          },
          {
            "sequence": 48,
            "lat": -26.17332262855911,
            "lng": -48.534197052437534
          },
          {
            "sequence": 49,
            "lat": -26.17457101554951,
            "lng": -48.53311601462382
          },
          {
            "sequence": 50,
            "lat": -26.177195431024245,
            "lng": -48.533213854661
          },
          {
            "sequence": 51,
            "lat": -26.178439199227615,
            "lng": -48.534196700760226
          },
          {
            "sequence": 52,
            "lat": -26.180307304245265,
            "lng": -48.53405866057154
          },
          {
            "sequence": 53,
            "lat": -26.182428087412184,
            "lng": -48.533821231460934
          },
          {
            "sequence": 54,
            "lat": -26.185009642896798,
            "lng": -48.534583213266075
          },
          {
            "sequence": 55,
            "lat": -26.18674386109734,
            "lng": -48.53421326555498
          },
          {
            "sequence": 56,
            "lat": -26.189433106332924,
            "lng": -48.53370959810906
          },
          {
            "sequence": 57,
            "lat": -26.19323295743177,
            "lng": -48.531099762651344
          },
          {
            "sequence": 58,
            "lat": -26.197666459220525,
            "lng": -48.52983036886005
          },
          {
            "sequence": 59,
            "lat": -26.199997505028865,
            "lng": -48.52946091312311
          },
          {
            "sequence": 60,
            "lat": -26.20184500579295,
            "lng": -48.529267945915116
          },
          {
            "sequence": 61,
            "lat": -26.204301635690246,
            "lng": -48.528827707110295
          },
          {
            "sequence": 62,
            "lat": -26.206303864389408,
            "lng": -48.52807668858587
          },
          {
            "sequence": 63,
            "lat": -26.20816119492769,
            "lng": -48.527452854633125
          },
          {
            "sequence": 64,
            "lat": -26.211295061363288,
            "lng": -48.52632691535398
          },
          {
            "sequence": 65,
            "lat": -26.21361924673476,
            "lng": -48.52550695601464
          },
          {
            "sequence": 66,
            "lat": -26.215994914241,
            "lng": -48.524635501638556
          },
          {
            "sequence": 67,
            "lat": -26.21936731928632,
            "lng": -48.52342140725109
          },
          {
            "sequence": 68,
            "lat": -26.222942407526915,
            "lng": -48.521630057592056
          },
          {
            "sequence": 69,
            "lat": -26.224075476667394,
            "lng": -48.51809346809671
          },
          {
            "sequence": 70,
            "lat": -26.22524944329803,
            "lng": -48.5148267615483
          },
          {
            "sequence": 71,
            "lat": -26.227065342408654,
            "lng": -48.51013744052271
          },
          {
            "sequence": 72,
            "lat": -26.228622075301676,
            "lng": -48.51024091261314
          },
          {
            "sequence": 73,
            "lat": -26.23169359525376,
            "lng": -48.51123802887444
          },
          {
            "sequence": 74,
            "lat": -26.23366340748371,
            "lng": -48.51081254381789
          },
          {
            "sequence": 75,
            "lat": -26.234654448310966,
            "lng": -48.51108732403381
          },
          {
            "sequence": 76,
            "lat": -26.236501790933666,
            "lng": -48.51154472358667
          },
          {
            "sequence": 77,
            "lat": -26.237680150047648,
            "lng": -48.51142338391641
          },
          {
            "sequence": 78,
            "lat": -26.238075845172755,
            "lng": -48.50907712452436
          },
          {
            "sequence": 79,
            "lat": -26.238504175435338,
            "lng": -48.50658830040089
          },
          {
            "sequence": 80,
            "lat": -26.234093249039667,
            "lng": -48.50334919320446
          },
          {
            "sequence": 81,
            "lat": -26.233692817696998,
            "lng": -48.50495782018237
          },
          {
            "sequence": 82,
            "lat": -26.23216011945235,
            "lng": -48.507259157385505
          },
          {
            "sequence": 83,
            "lat": -26.230130298789668,
            "lng": -48.506635718209566
          },
          {
            "sequence": 84,
            "lat": -26.227423033945513,
            "lng": -48.504468115373506
          },
          {
            "sequence": 85,
            "lat": -26.226063872255548,
            "lng": -48.502338993888074
          },
          {
            "sequence": 86,
            "lat": -26.22455012053676,
            "lng": -48.50120214205206
          },
          {
            "sequence": 87,
            "lat": -26.221172351839055,
            "lng": -48.50095605474087
          }
        ],
        "stops": [
          {
            "id": "collected-line-0109-outbound-stop-1",
            "name": "Praça Dr. Getúlio Vargas 1",
            "sequence": 1,
            "location": {
              "lat": -26.243437512602945,
              "lng": -48.637910711972246
            },
            "isTimingPoint": true
          },
          {
            "id": "collected-line-0109-outbound-stop-2",
            "name": "Ogmo SFS",
            "sequence": 2,
            "location": {
              "lat": -26.24347278215267,
              "lng": -48.635064229915336
            }
          },
          {
            "id": "collected-line-0109-outbound-stop-3",
            "name": "Antiga Multipaper (Sentido Centro/Bairro)",
            "sequence": 3,
            "location": {
              "lat": -26.244699006604957,
              "lng": -48.63466469668285
            }
          },
          {
            "id": "collected-line-0109-outbound-stop-4",
            "name": "Carioca (Bica d'água)",
            "sequence": 4,
            "location": {
              "lat": -26.24659710935892,
              "lng": -48.63549497664863
            }
          },
          {
            "id": "collected-line-0109-outbound-stop-5",
            "name": "Colégio Adventista",
            "sequence": 5,
            "location": {
              "lat": -26.247834789940356,
              "lng": -48.63733216779835
            }
          },
          {
            "id": "collected-line-0109-outbound-stop-6",
            "name": "Restaurante Tom Brasil",
            "sequence": 6,
            "location": {
              "lat": -26.249248390210585,
              "lng": -48.63840582899403
            }
          },
          {
            "id": "collected-line-0109-outbound-stop-7",
            "name": "Rodoviária Velha",
            "sequence": 7,
            "location": {
              "lat": -26.249224290355095,
              "lng": -48.63560230865354
            }
          },
          {
            "id": "collected-line-0109-outbound-stop-8",
            "name": "Millium",
            "sequence": 8,
            "location": {
              "lat": -26.24773780113116,
              "lng": -48.634526537853745
            }
          },
          {
            "id": "collected-line-0109-outbound-stop-9",
            "name": "Colégio Santa Catarina, Rua Barão do Rio Branco 730",
            "sequence": 9,
            "location": {
              "lat": -26.24515882173163,
              "lng": -48.632634968370155
            }
          },
          {
            "id": "collected-line-0109-outbound-stop-10",
            "name": "Igreja Quadrangular (antigo Super 10)",
            "sequence": 10,
            "location": {
              "lat": -26.246340804596205,
              "lng": -48.629343796815185
            }
          },
          {
            "id": "collected-line-0109-outbound-stop-11",
            "name": "Auto Escola São Francisco",
            "sequence": 11,
            "location": {
              "lat": -26.24719855818423,
              "lng": -48.627462845459284
            }
          },
          {
            "id": "collected-line-0109-outbound-stop-12",
            "name": "Viação Verdes Mares",
            "sequence": 12,
            "location": {
              "lat": -26.249219862252595,
              "lng": -48.62307844858382
            }
          },
          {
            "id": "collected-line-0109-outbound-stop-13",
            "name": "Antiga Souza Vidal",
            "sequence": 13,
            "location": {
              "lat": -26.25129673331392,
              "lng": -48.61880208945875
            }
          },
          {
            "id": "collected-line-0109-outbound-stop-14",
            "name": "Borracharia do Eldo",
            "sequence": 14,
            "location": {
              "lat": -26.252586180491125,
              "lng": -48.61696827912255
            }
          },
          {
            "id": "collected-line-0109-outbound-stop-15",
            "name": "Gelo da Ilha",
            "sequence": 15,
            "location": {
              "lat": -26.25350335302604,
              "lng": -48.61416680995571
            }
          },
          {
            "id": "collected-line-0109-outbound-stop-16",
            "name": "Polimix",
            "sequence": 16,
            "location": {
              "lat": -26.2502089362594,
              "lng": -48.60884798948869
            }
          },
          {
            "id": "collected-line-0109-outbound-stop-17",
            "name": "Padaria KM 1,5",
            "sequence": 17,
            "location": {
              "lat": -26.247697801414972,
              "lng": -48.60548822716956
            }
          },
          {
            "id": "collected-line-0109-outbound-stop-18",
            "name": "EM Franklin de Oliveira (Sentido Centro/Bairro)",
            "sequence": 18,
            "location": {
              "lat": -26.244593896062582,
              "lng": -48.601328070731256
            }
          },
          {
            "id": "collected-line-0109-outbound-stop-19",
            "name": "Antes do Rocha",
            "sequence": 19,
            "location": {
              "lat": -26.238657459849893,
              "lng": -48.59319657509188
            }
          },
          {
            "id": "collected-line-0109-outbound-stop-20",
            "name": "Porto Seco Rocha (Sentido Centro/Bairro)",
            "sequence": 20,
            "location": {
              "lat": -26.23577626467118,
              "lng": -48.589257238770365
            }
          },
          {
            "id": "collected-line-0109-outbound-stop-21",
            "name": "KM 3 (Sentido Centro/Bairro)",
            "sequence": 21,
            "location": {
              "lat": -26.233972591742404,
              "lng": -48.5868932472597
            }
          },
          {
            "id": "collected-line-0109-outbound-stop-22",
            "name": "Rua Rodovia Duque de Caxias, 4602",
            "sequence": 22,
            "location": {
              "lat": -26.23047654858731,
              "lng": -48.58233903078628
            }
          },
          {
            "id": "collected-line-0109-outbound-stop-23",
            "name": "Associação do Porto (Sentido Centro/Bairro)",
            "sequence": 23,
            "location": {
              "lat": -26.228341720217372,
              "lng": -48.579116629838914
            }
          },
          {
            "id": "collected-line-0109-outbound-stop-24",
            "name": "Posto Mediterrâneo (Centro/Bairro)",
            "sequence": 24,
            "location": {
              "lat": -26.225063901907514,
              "lng": -48.57663070547908
            }
          },
          {
            "id": "collected-line-0109-outbound-stop-25",
            "name": "Próximo a Univille (Centro/Bairro)",
            "sequence": 25,
            "location": {
              "lat": -26.220120350734142,
              "lng": -48.57404903955047
            }
          },
          {
            "id": "collected-line-0109-outbound-stop-26",
            "name": "EM João Dias",
            "sequence": 26,
            "location": {
              "lat": -26.218306317713612,
              "lng": -48.57186603731601
            }
          },
          {
            "id": "collected-line-0109-outbound-stop-27",
            "name": "Rua Rodovia Duque de Caxias, 8111",
            "sequence": 27,
            "location": {
              "lat": -26.217178784558783,
              "lng": -48.5703807857199
            }
          },
          {
            "id": "collected-line-0109-outbound-stop-28",
            "name": "Peixaria do Pedrinho",
            "sequence": 28,
            "location": {
              "lat": -26.215470858755566,
              "lng": -48.56774623787437
            }
          },
          {
            "id": "collected-line-0109-outbound-stop-29",
            "name": "Mercado Palhares",
            "sequence": 29,
            "location": {
              "lat": -26.21448188915687,
              "lng": -48.56359941296332
            }
          },
          {
            "id": "collected-line-0109-outbound-stop-30",
            "name": "Lajes Ubatuba (Centro/Bairro)",
            "sequence": 30,
            "location": {
              "lat": -26.213124773000214,
              "lng": -48.55826110811527
            }
          },
          {
            "id": "collected-line-0109-outbound-stop-31",
            "name": "Posto Ká Brasil",
            "sequence": 31,
            "location": {
              "lat": -26.20879120798978,
              "lng": -48.544997895494866
            }
          },
          {
            "id": "collected-line-0109-outbound-stop-32",
            "name": "Mercado Bona (Centro/Bairro)",
            "sequence": 32,
            "location": {
              "lat": -26.20707248293841,
              "lng": -48.540736957872326
            }
          },
          {
            "id": "collected-line-0109-outbound-stop-33",
            "name": "Estrada do Forte 1",
            "sequence": 33,
            "location": {
              "lat": -26.202860516163796,
              "lng": -48.53697643723416
            }
          },
          {
            "id": "collected-line-0109-outbound-stop-34",
            "name": "Estrada do Forte, 630",
            "sequence": 34,
            "location": {
              "lat": -26.20112475028817,
              "lng": -48.53579338494922
            }
          },
          {
            "id": "collected-line-0109-outbound-stop-35",
            "name": "Estrada do Forte 3",
            "sequence": 35,
            "location": {
              "lat": -26.19846838452366,
              "lng": -48.53290716453095
            }
          },
          {
            "id": "collected-line-0109-outbound-stop-36",
            "name": "Estrada do Forte 4",
            "sequence": 36,
            "location": {
              "lat": -26.193119216990677,
              "lng": -48.53090170484589
            }
          },
          {
            "id": "collected-line-0109-outbound-stop-37",
            "name": "Estrada do Forte 5",
            "sequence": 37,
            "location": {
              "lat": -26.188916766213776,
              "lng": -48.53361700327354
            }
          },
          {
            "id": "collected-line-0109-outbound-stop-38",
            "name": "Estrada do Forte 6",
            "sequence": 38,
            "location": {
              "lat": -26.186540711160877,
              "lng": -48.53409731180496
            }
          },
          {
            "id": "collected-line-0109-outbound-stop-39",
            "name": "Estrada do Forte 7",
            "sequence": 39,
            "location": {
              "lat": -26.184935318684133,
              "lng": -48.534467259516056
            }
          },
          {
            "id": "collected-line-0109-outbound-stop-40",
            "name": "Estrada do Forte 8",
            "sequence": 40,
            "location": {
              "lat": -26.1839591895995,
              "lng": -48.53401448771022
            }
          },
          {
            "id": "collected-line-0109-outbound-stop-41",
            "name": "Estrada do Forte 9",
            "sequence": 41,
            "location": {
              "lat": -26.181932580788043,
              "lng": -48.53379362342522
            }
          },
          {
            "id": "collected-line-0109-outbound-stop-42",
            "name": "Estrada do Forte 10",
            "sequence": 42,
            "location": {
              "lat": -26.18007441215611,
              "lng": -48.53397031485724
            }
          },
          {
            "id": "collected-line-0109-outbound-stop-43",
            "name": "Estrada do Forte 11",
            "sequence": 43,
            "location": {
              "lat": -26.178543258912637,
              "lng": -48.53401448772447
            }
          },
          {
            "id": "collected-line-0109-outbound-stop-44",
            "name": "Estrada do Forte 12",
            "sequence": 44,
            "location": {
              "lat": -26.17719047574594,
              "lng": -48.53308133608954
            }
          },
          {
            "id": "collected-line-0109-outbound-stop-45",
            "name": "Estrada do Forte 13",
            "sequence": 45,
            "location": {
              "lat": -26.17398170061045,
              "lng": -48.533335681696926
            }
          },
          {
            "id": "collected-line-0109-outbound-stop-46",
            "name": "Estrada do Forte 14",
            "sequence": 46,
            "location": {
              "lat": -26.172762662175412,
              "lng": -48.53447313279473
            }
          },
          {
            "id": "collected-line-0109-outbound-stop-47",
            "name": "Forte Marechal Luz",
            "sequence": 47,
            "location": {
              "lat": -26.168114753304362,
              "lng": -48.53456075459785
            }
          },
          {
            "id": "collected-line-0109-outbound-stop-48",
            "name": "Estrada do Forte 15",
            "sequence": 48,
            "location": {
              "lat": -26.17332262855911,
              "lng": -48.534197052437534
            }
          },
          {
            "id": "collected-line-0109-outbound-stop-49",
            "name": "Estrada do Forte 16",
            "sequence": 49,
            "location": {
              "lat": -26.17457101554951,
              "lng": -48.53311601462382
            }
          },
          {
            "id": "collected-line-0109-outbound-stop-50",
            "name": "Estrada do Forte 17",
            "sequence": 50,
            "location": {
              "lat": -26.177195431024245,
              "lng": -48.533213854661
            }
          },
          {
            "id": "collected-line-0109-outbound-stop-51",
            "name": "Estrada do Forte 18",
            "sequence": 51,
            "location": {
              "lat": -26.178439199227615,
              "lng": -48.534196700760226
            }
          },
          {
            "id": "collected-line-0109-outbound-stop-52",
            "name": "Estrada do Forte 19",
            "sequence": 52,
            "location": {
              "lat": -26.180307304245265,
              "lng": -48.53405866057154
            }
          },
          {
            "id": "collected-line-0109-outbound-stop-53",
            "name": "Estrada do Forte 20",
            "sequence": 53,
            "location": {
              "lat": -26.182428087412184,
              "lng": -48.533821231460934
            }
          },
          {
            "id": "collected-line-0109-outbound-stop-54",
            "name": "Estrada do Forte 21",
            "sequence": 54,
            "location": {
              "lat": -26.185009642896798,
              "lng": -48.534583213266075
            }
          },
          {
            "id": "collected-line-0109-outbound-stop-55",
            "name": "Estrada do Forte 22",
            "sequence": 55,
            "location": {
              "lat": -26.18674386109734,
              "lng": -48.53421326555498
            }
          },
          {
            "id": "collected-line-0109-outbound-stop-56",
            "name": "Estrada do Forte 23",
            "sequence": 56,
            "location": {
              "lat": -26.189433106332924,
              "lng": -48.53370959810906
            }
          },
          {
            "id": "collected-line-0109-outbound-stop-57",
            "name": "Estrada do Forte 24",
            "sequence": 57,
            "location": {
              "lat": -26.19323295743177,
              "lng": -48.531099762651344
            }
          },
          {
            "id": "collected-line-0109-outbound-stop-58",
            "name": "Gustavo Vogelsanger 1",
            "sequence": 58,
            "location": {
              "lat": -26.197666459220525,
              "lng": -48.52983036886005
            }
          },
          {
            "id": "collected-line-0109-outbound-stop-59",
            "name": "Av. Bogotá 1",
            "sequence": 59,
            "location": {
              "lat": -26.199997505028865,
              "lng": -48.52946091312311
            }
          },
          {
            "id": "collected-line-0109-outbound-stop-60",
            "name": "Rua Cabul, 118",
            "sequence": 60,
            "location": {
              "lat": -26.20184500579295,
              "lng": -48.529267945915116
            }
          },
          {
            "id": "collected-line-0109-outbound-stop-61",
            "name": "Secretaria de Obras das Praias (Sentido Centro/Bairro)",
            "sequence": 61,
            "location": {
              "lat": -26.204301635690246,
              "lng": -48.528827707110295
            }
          },
          {
            "id": "collected-line-0109-outbound-stop-62",
            "name": "Av. Bogotá 4 (Próximo FT)",
            "sequence": 62,
            "location": {
              "lat": -26.206303864389408,
              "lng": -48.52807668858587
            }
          },
          {
            "id": "collected-line-0109-outbound-stop-63",
            "name": "Antiga Reinert Mat. Construção",
            "sequence": 63,
            "location": {
              "lat": -26.20816119492769,
              "lng": -48.527452854633125
            }
          },
          {
            "id": "collected-line-0109-outbound-stop-64",
            "name": "Multipraia Society",
            "sequence": 64,
            "location": {
              "lat": -26.211295061363288,
              "lng": -48.52632691535398
            }
          },
          {
            "id": "collected-line-0109-outbound-stop-65",
            "name": "Próximo Rua Armazém",
            "sequence": 65,
            "location": {
              "lat": -26.21361924673476,
              "lng": -48.52550695601464
            }
          },
          {
            "id": "collected-line-0109-outbound-stop-66",
            "name": "Ubatuba Bebidas",
            "sequence": 66,
            "location": {
              "lat": -26.215994914241,
              "lng": -48.524635501638556
            }
          },
          {
            "id": "collected-line-0109-outbound-stop-67",
            "name": "Próximo Contabilidade Enseada",
            "sequence": 67,
            "location": {
              "lat": -26.21936731928632,
              "lng": -48.52342140725109
            }
          },
          {
            "id": "collected-line-0109-outbound-stop-68",
            "name": "Entrada Rua Felipe Musse",
            "sequence": 68,
            "location": {
              "lat": -26.222942407526915,
              "lng": -48.521630057592056
            }
          },
          {
            "id": "collected-line-0109-outbound-stop-69",
            "name": "Pizzaria Kanto da Pizza",
            "sequence": 69,
            "location": {
              "lat": -26.224075476667394,
              "lng": -48.51809346809671
            }
          },
          {
            "id": "collected-line-0109-outbound-stop-70",
            "name": "Mercado Pato Branco",
            "sequence": 70,
            "location": {
              "lat": -26.22524944329803,
              "lng": -48.5148267615483
            }
          },
          {
            "id": "collected-line-0109-outbound-stop-71",
            "name": "Aquamires",
            "sequence": 71,
            "location": {
              "lat": -26.227065342408654,
              "lng": -48.51013744052271
            }
          },
          {
            "id": "collected-line-0109-outbound-stop-72",
            "name": "Ceará 1",
            "sequence": 72,
            "location": {
              "lat": -26.228622075301676,
              "lng": -48.51024091261314
            }
          },
          {
            "id": "collected-line-0109-outbound-stop-73",
            "name": "Esquina Rua Salvador",
            "sequence": 73,
            "location": {
              "lat": -26.23169359525376,
              "lng": -48.51123802887444
            }
          },
          {
            "id": "collected-line-0109-outbound-stop-74",
            "name": "Esquina Rua Sérgio Onesti",
            "sequence": 74,
            "location": {
              "lat": -26.23366340748371,
              "lng": -48.51081254381789
            }
          },
          {
            "id": "collected-line-0109-outbound-stop-75",
            "name": "Avenida São Francisco do Sul 2",
            "sequence": 75,
            "location": {
              "lat": -26.234654448310966,
              "lng": -48.51108732403381
            }
          },
          {
            "id": "collected-line-0109-outbound-stop-76",
            "name": "Esquina Av. Progresso",
            "sequence": 76,
            "location": {
              "lat": -26.236501790933666,
              "lng": -48.51154472358667
            }
          },
          {
            "id": "collected-line-0109-outbound-stop-77",
            "name": "Avenida Paraná 1",
            "sequence": 77,
            "location": {
              "lat": -26.237680150047648,
              "lng": -48.51142338391641
            }
          },
          {
            "id": "collected-line-0109-outbound-stop-78",
            "name": "Avenida Paraná 2",
            "sequence": 78,
            "location": {
              "lat": -26.238075845172755,
              "lng": -48.50907712452436
            }
          },
          {
            "id": "collected-line-0109-outbound-stop-79",
            "name": "Avenida Paraná 3",
            "sequence": 79,
            "location": {
              "lat": -26.238504175435338,
              "lng": -48.50658830040089
            }
          },
          {
            "id": "collected-line-0109-outbound-stop-80",
            "name": "Rua Teresina 1",
            "sequence": 80,
            "location": {
              "lat": -26.234093249039667,
              "lng": -48.50334919320446
            }
          },
          {
            "id": "collected-line-0109-outbound-stop-81",
            "name": "Rua Teresina 2",
            "sequence": 81,
            "location": {
              "lat": -26.233692817696998,
              "lng": -48.50495782018237
            }
          },
          {
            "id": "collected-line-0109-outbound-stop-82",
            "name": "Rua São Luís, 635",
            "sequence": 82,
            "location": {
              "lat": -26.23216011945235,
              "lng": -48.507259157385505
            }
          },
          {
            "id": "collected-line-0109-outbound-stop-83",
            "name": "Rua Mato Grosso, 245",
            "sequence": 83,
            "location": {
              "lat": -26.230130298789668,
              "lng": -48.506635718209566
            }
          },
          {
            "id": "collected-line-0109-outbound-stop-84",
            "name": "Santa Catarina 3",
            "sequence": 84,
            "location": {
              "lat": -26.227423033945513,
              "lng": -48.504468115373506
            }
          },
          {
            "id": "collected-line-0109-outbound-stop-85",
            "name": "Santa Catarina 4",
            "sequence": 85,
            "location": {
              "lat": -26.226063872255548,
              "lng": -48.502338993888074
            }
          },
          {
            "id": "collected-line-0109-outbound-stop-86",
            "name": "Fundos Hotel Fragata",
            "sequence": 86,
            "location": {
              "lat": -26.22455012053676,
              "lng": -48.50120214205206
            }
          },
          {
            "id": "collected-line-0109-outbound-stop-87",
            "name": "Ponto Final Enseada",
            "sequence": 87,
            "location": {
              "lat": -26.221172351839055,
              "lng": -48.50095605474087
            },
            "isTimingPoint": true
          }
        ],
        "departures": [
          {
            "id": "collected-line-0109-outbound-weekday-1100",
            "serviceDay": "weekday",
            "departureTime": "11:00",
            "stopPredictions": []
          }
        ],
        "source": {
          "sourceId": "verdes-mares-sfs",
          "sourceName": "Verdes Mares Sao Francisco do Sul",
          "sourceUrl": "https://vmares.com.br/sao-francisco-do-sul/",
          "collectedAt": "2026-04-16T12:00:00.000Z",
          "collectionMethod": "manual",
          "sourceLineRef": "0109",
          "sourceDirectionRef": "outbound"
        }
      }
    ],
    "collectionStatus": "reviewed",
    "source": {
      "sourceId": "verdes-mares-sfs",
      "sourceName": "Verdes Mares Sao Francisco do Sul",
      "sourceUrl": "https://vmares.com.br/sao-francisco-do-sul/",
      "collectedAt": "2026-04-16T12:00:00.000Z",
      "collectionMethod": "manual",
      "sourceLineRef": "0109",
      "notes": "Linha 0109 Enseada via Praia Grande/Forte montada com sentido Centro/Bairro a partir das paradas informadas, reaproveitando coordenadas do banco local."
    }
  }
}
